companyId,positionName,workYear,education,jobNature,positionId,companyShortName,createTime,score,city,salary,approve,positionAdvantage,financeStage,industryField,companySize,companyLabelList,publisherId,district,companyLogo,positionLables,industryLables,businessZones,longitude,latitude,formatCreateTime,hitags,resumeProcessRate,resumeProcessDay,companyFullName,imState,lastLogin,explain,adWord,plus,pcShow,appShow,deliver,gradeDescription,promotionScoreExplain,firstType,secondType,isSchoolJob,subwayline,stationname,linestaion
22862,中高级PHP开发（金融产品）,3-5年,本科,全职,3882990,上海中软华腾软件系统有限公司,"2018-06-10 21:03:34",0,上海,12k-18k,1,"PHP开发 金融 原生PHP",上市公司,"企业服务,金融",2000人以上,"年底双薪,绩效奖金,带薪年假,定期体检",2698883,浦东新区,image1/M00/00/2C/CgYXBlTUXHOAPmTsAACEZGcxlZQ644.jpg,"金融,后端开发,Java,后端","金融,后端开发,Java,后端","张江,唐镇",121.635159,31.222879,21:03发布,"试用期上社保,早九晚六,试用期上公积金,免费体检,地铁周边,5险1金,定期团建",45,1,上海中软华腾软件系统有限公司,threeDays,1528538384000,null,0,null,0,0,0,null,null,开发/测试/运维类,后端开发,0,null,null,null
23039,php中级工程师,不限,本科,全职,4702934,好大夫在线,"2018-06-10 20:37:58",0,北京,20k-40k,1,"互联网医疗,大公司,发展空间,福利好",D轮及以上,医疗健康,500-2000人,"五险一金,带薪年假,绩效奖金,专项奖金",10830020,朝阳区,i/image/M00/73/BB/CgpEMlozoTuAdljKAABA2QMgfo4109.jpg,,,"四惠,十里堡,甘露园",116.50929,39.912321,20:37发布,null,0,0,互动峰科技(北京)有限公司,today,1528633089000,null,0,null,0,0,0,null,null,开发/测试/运维类,后端开发,0,八通线,四惠东,1号线_四惠;1号线_四惠东;6号线_青年路;6号线_十里堡;八通线_四惠东
67860,PHP开发,3-5年,本科,全职,4700407,叮咚买菜,"2018-06-10 20:37:32",0,上海,20k-30k,1,"发展空间大,福利好,技术大牛多,交通便利",A轮,O2O,500-2000人,"弹性工作,扁平管理,股票期权,带薪年假",7490482,浦东新区,i/image/M00/C0/61/CgqKkVjSVsiAWBKSAABRD1efTm0126.jpg,"Python,MySQL,后端",,"张江,花木,北蔡",121.58206,31.200058,20:37发布,null,0,0,上海壹佰米网络科技有限公司,disabled,1528634169000,null,0,null,0,0,0,null,null,开发/测试/运维类,后端开发,0,2号线,张江高科,2号线_张江高科
235866,PHP高级工程师,3-5年,大专,全职,4450257,粒电科技,"2018-06-10 20:19:53",0,北京,20k-25k,0,"成长快,调薪快,提升快,公司年轻化",A轮,"电子商务,移动互联网",15-50人,"弹性工作,领导好,扁平管理,五险一金",8557638,海淀区,i/image2/M00/20/39/CgotOVoOtMKAEcKjAAAP0C5YRmY001.jpg,后端开发,,"北太平庄,牡丹园",116.377383,39.978531,20:19发布,null,3,3,北京粒电科技有限公司,today,1528633175000,null,0,null,0,0,0,null,null,开发/测试/运维类,后端开发,0,10号线,北土城,8号线_北土城;10号线_牡丹园;10号线_健德门;10号线_北土城
133382,PHP研发工程师,不限,本科,全职,4576880,百乘金控,"2018-06-10 20:18:42",0,北京,20k-40k,1,"年终丰厚,扁平管理,大数据风控,互联网金融",上市公司,金融,500-2000人,"带薪年假,午餐补助,扁平管理,技能培训",1360230,朝阳区,i/image/M00/62/98/CgpFT1mdUEKAWOGRAAANoyEVZtw544.jpg,"金融,Java,web","金融,Java,web","大屯,奥运村,亚运村",116.387716,39.999053,20:18发布,null,69,1,北京百乘科技有限公司,today,1528633109000,null,0,null,0,0,0,null,null,开发/测试/运维类,后端开发,0,15号线,奥林匹克公园,8号线_奥林匹克公园;8号线_森林公园南门;15号线_奥林匹克公园
196144,高级PHP,5-10年,不限,全职,4702914,航科智宇,"2018-06-10 19:59:45",0,成都,15K-25K,0,项目分红丰厚,不需要融资,移动互联网,15-50人,,7484576,高新区,i/image/M00/1E/DD/CgpFT1kRMNaAA58lAAB5Qpt1K0Q472.png,后端开发,,中和,104.066381,30.54521,19:59发布,null,75,1,北京航科智宇科技有限公司成都分公司,today,1528631903000,null,0,null,0,0,0,null,null,开发/测试/运维类,后端开发,0,1号线,世纪城,1号线_天府五街;1号线_天府三街;1号线_世纪城
2474,PHP中间件工程师/架构师,3-5年,本科,全职,4460097,滴滴出行,"2018-06-10 19:45:58",0,北京,20k-40k,1,"发展前景,优质团队",不需要融资,移动互联网,2000人以上,"弹性工作,节日礼物,岗位晋升,技能培训",3769340,海淀区,i/image/M00/00/20/Cgp3O1YtmkSAZjX1AAA78knErXc273.jpg,"高级,Java",,"西北旺,上地,马连洼",116.285175,40.044846,19:45发布,null,31,1,北京嘀嘀无限科技发展有限公司,today,1528631168000,null,0,null,0,0,0,null,null,开发/测试/运维类,后端开发,0,null,null,null
112992,PHP高级工程师（北京）,3-5年,本科,全职,3887054,美篇,"2018-06-10 19:45:03",0,北京,20k-35k,0,"牛人多,福利好,工作弹性,季度出游",A轮,"移动互联网,社交网络",50-150人,"扁平管理,弹性工作,氛围融洽,牛人多",3755461,海淀区,i/image/M00/45/64/CgpFT1ljVIOADCoeAAGenQd8spg806.png,"信息安全,架构师,后端,laravel,驱动开发","信息安全,架构师,后端,laravel,驱动开发","知春路,学院路,中关村",116.344462,39.976877,19:45发布,null,100,2,南京蓝鲸人网络科技有限公司,today,1528631074000,null,0,null,0,0,0,null,null,开发/测试/运维类,后端开发,0,10号线,西土城,10号线_知春里;10号线_知春路;10号线_西土城;13号线_大钟寺;13号线_知春路
165128,PHP高级软件工程师,3-5年,本科,全职,2705095,闪光科技,"2018-06-10 18:59:36",0,西安,7k-12k,1,"弹性工作,升职空间",不需要融资,"企业服务,移动互联网",15-50人,"弹性工作,岗位晋升,五险一金,专项奖金",6739501,雁塔区,i/image/M00/B0/A4/Cgp3O1i4E-uADRtvAAB4d4Bw8dg242.png,"后端开发,架构师,全栈",,西影路,108.992764,34.23011,18:59发布,null,31,1,西安闪光软件科技有限公司,disabled,1528628354000,null,0,null,0,0,0,null,null,开发/测试/运维类,后端开发,0,3号线,青龙寺,3号线_青龙寺
36009,PHP架构师,5-10年,本科,全职,3642249,途虎养车网,"2018-06-10 18:30:40",0,上海,20k-30k,1,"年底多薪,交通便利,扁平管理",D轮及以上,移动互联网,2000人以上,"技能培训,节日礼物,绩效奖金,岗位晋升",629661,闵行区,i/image/M00/7C/F1/Cgp3O1hGikiAJl6jAANpB1PThVo682.jpg,"高级,node.js,Java",,"古美,南方商城,梅陇",121.398332,31.131918,18:30发布,null,6,1,上海阑途信息技术有限公司,today,1528627753000,null,0,null,0,0,0,null,null,开发/测试/运维类,后端开发,0,12号线,顾戴路,1号线_外环路;1号线_莲花路;12号线_顾戴路
1952,PHP后端工程师,3-5年,本科,全职,4063460,希悦,"2018-06-10 18:27:20",0,北京,20k-30k,1,"发展广阔,创新创造,年轻有爱,福利完善",不需要融资,"移动互联网 ,教育",15-50人,"地铁2分钟,校内宿舍,超大体育馆,健康自助餐",15780,海淀区,i/image2/M00/0C/90/CgoB5lnga82AK5ChAAAWUA3k6xE055.png,"高级,Java,python",,"中关村,人民大学,知春路",116.320188,39.97748,18:27发布,null,100,1,北京悦活教育科技有限责任公司,today,1528626452000,null,0,null,0,0,0,null,null,开发/测试/运维类,后端开发,0,10号线,海淀黄庄,4号线大兴线_人民大学;4号线大兴线_海淀黄庄;4号线大兴线_中关村;10号线_苏州街;10号线_海淀黄庄;10号线_知春里
123777,PHP开发工程师（百度）,1-3年,本科,全职,4550916,通力互联,"2018-06-10 18:17:26",0,上海,10k-15k,0,"平台好,福利好,技术大牛",不需要融资,"电子商务,企业服务",2000人以上,"绩效奖金,交通补助,定期体检,通讯津贴",9328764,浦东新区,i/image/M00/2E/03/CgqKkVc9jmCAI8DpAAD09YLPnBk157.png,"中级,初级,Java,MySQL",,张江,121.605613,31.179315,18:17发布,null,0,1,北京通力互联技术服务有限公司,today,1528626749000,null,0,null,0,0,0,null,null,开发/测试/运维类,后端开发,0,null,null,null
396789,php开发工程师,1-3年,大专,全职,4666436,朴讯软件,"2018-06-10 18:04:19",0,武汉,6K-12K,0,弹性工作时间，不打卡，早来早回家,不需要融资,移动互联网,150-500人,"""""",10957001,null,i/image2/M00/51/07/CgotOVsSRLyATriTAABKOVty5nk556.png,"初级,后端开发",,null,114.221508,30.521851,18:04发布,null,0,0,朴讯软件（湖北）有限公司,today,1528634993000,null,0,null,0,0,0,null,null,开发/测试/运维类,后端开发,0,null,null,null
396792,PHP开发工程师（微信小程序）,1-3年,本科,全职,4702847,小看科技,"2018-06-10 18:03:32",0,深圳,6k-12k,0,"一起学习,一起成长",不需要融资,移动互联网,少于15人,"弹性工作,扁平管理,领导好",5668861,龙岗区,i/image2/M00/52/29/CgoB5lsVFJqAFA5hAAAWQWVQl6U794.png,"电商,Java","电商,Java",null,114.257817,22.70789,18:03发布,null,0,7,深圳小看科技有限公司,today,1528630372000,null,0,null,0,0,0,null,null,开发/测试/运维类,后端开发,0,3号线/龙岗线,龙城广场,3号线/龙岗线_吉祥;3号线/龙岗线_龙城广场
138157,PHP开发工程师,3-5年,本科,全职,4682681,冰鸟,"2018-06-10 17:58:41",0,广州,10k-15k,1,技术大牛,上市公司,"移动互联网,游戏",150-500人,,5570557,天河区,i/image/M00/94/DA/CgqKkVia3ROAMjI4AAAeERgEZxE420.jpg,"广告营销,游戏开发,后端","广告营销,游戏开发,后端","天河城,岗顶,石牌",113.334935,23.132802,17:58发布,null,32,1,广州冰鸟网络科技有限公司,today,1528633364000,null,0,null,0,0,0,null,null,开发/测试/运维类,后端开发,0,APM线,黄埔大道,1号线_体育西路;1号线_体育中心;3号线_体育西路;3号线_石牌桥;3号线_岗顶;3号线_华师;3号线(北延段)_林和西;3号线(北延段)_体育西路;APM线_黄埔大道;APM线_天河南;APM线_体育中心南;APM线_林和西
22862,PHP+Java开发,5-10年,本科,全职,3814147,上海中软华腾软件系统有限公司,"2018-06-10 21:03:34",0,上海,15k-20k,1,"金融 跨境交易 浦东",上市公司,"企业服务,金融",2000人以上,"年底双薪,绩效奖金,带薪年假,定期体检",2698883,浦东新区,image1/M00/00/2C/CgYXBlTUXHOAPmTsAACEZGcxlZQ644.jpg,"中级,web,JavaScript",,"张江,唐镇",121.635159,31.222879,21:03发布,"试用期上社保,早九晚六,试用期上公积金,免费体检,地铁周边,5险1金,定期团建",45,1,上海中软华腾软件系统有限公司,threeDays,1528538384000,null,0,null,0,0,0,null,null,开发/测试/运维类,后端开发,0,null,null,null
112992,PHP高级工程师（南京）,3-5年,本科,全职,3875823,美篇,"2018-06-10 19:45:03",0,南京,20k-35k,0,"弹性工作,扁平管理,牛人多",A轮,"移动互联网,社交网络",50-150人,"扁平管理,弹性工作,氛围融洽,牛人多",3755461,雨花台区,i/image/M00/45/64/CgpFT1ljVIOADCoeAAGenQd8spg806.png,"后端开发,架构师,laravel,Python,GO",,null,118.76433,31.97122,19:45发布,null,100,2,南京蓝鲸人网络科技有限公司,today,1528631074000,null,0,null,0,0,0,null,null,开发/测试/运维类,后端开发,0,1号线,天隆寺,1号线_软件大道;1号线_天隆寺
36009,高级PHP工程师,5-10年,本科,全职,2664058,途虎养车网,"2018-06-10 18:30:40",0,上海,20k-30k,1,"平台发展好,交通便利",D轮及以上,移动互联网,2000人以上,"技能培训,节日礼物,绩效奖金,岗位晋升",629661,闵行区,i/image/M00/7C/F1/Cgp3O1hGikiAJl6jAANpB1PThVo682.jpg,汽车,汽车,"古美,南方商城,梅陇",121.398332,31.131918,18:30发布,null,6,1,上海阑途信息技术有限公司,today,1528627753000,null,0,null,0,0,0,null,null,开发/测试/运维类,后端开发,0,12号线,顾戴路,1号线_外环路;1号线_莲花路;12号线_顾戴路
123777,php开发,3-5年,本科,全职,4497415,通力互联,"2018-06-10 18:17:25",0,北京,10k-14k,0,"名企上班,五险一金,节日福利",不需要融资,"电子商务,企业服务",2000人以上,"绩效奖金,交通补助,定期体检,通讯津贴",9328764,海淀区,i/image/M00/2E/03/CgqKkVc9jmCAI8DpAAD09YLPnBk157.png,linux,,"中关村,万泉河,苏州街",116.306337,39.981802,18:17发布,null,0,1,北京通力互联技术服务有限公司,today,1528626749000,null,0,null,0,0,0,null,null,开发/测试/运维类,后端开发,0,10号线,海淀黄庄,4号线大兴线_海淀黄庄;4号线大兴线_中关村;4号线大兴线_北京大学东门;10号线_苏州街;10号线_海淀黄庄
211701,PHP工程师（地点：马尼拉）,3-5年,大专,全职,3785259,大金科技,"2018-06-10 17:58:15",0,香港特别行政区,12k-24k,1,"年终奖金,年假30天,提供食宿,机票报销",不需要融资,"移动互联网,数据服务",150-500人,"机票签证全包,生日礼金,年终分红,年底双薪",9181775,沙田区,i/image/M00/47/59/CgpEMllfZ2uADICaAAD3mwcawmg270.jpg,"资深,高级,中级,MySQL,后端",,null,114.195366,22.379532,17:58发布,null,100,1,安徽立品网络科技有限公司,today,1528620527000,null,0,null,0,0,0,null,null,开发/测试/运维类,后端开发,0,馬鞍山綫,車公廟,東鐵綫_沙田;東鐵綫_沙田;馬鞍山綫_車公廟;馬鞍山綫_沙田圍;馬鞍山綫_第一城
100114,PHP,1-3年,本科,全职,4449258,芝麻加油,"2018-06-10 17:52:13",0,广州,8k-10k,1,"技术培训,七险一金,扁平化管理,气氛轻松",A轮,"移动互联网,O2O",15-50人,"发展空间大,扁平管理,领导好,尊重技术",2803195,海珠区,image2/M00/0C/4A/CgpzWlYbufyABrKIAADyEOoAn9Y586.png?cc=0.3990563275292516,"中级,后端开发,MySQL,redis,架构",,"客村,新港,赤岗",113.322138,23.089868,17:52发布,null,100,1,广州市本该信息技术有限责任公司,disabled,1528624294000,null,0,null,0,0,0,null,null,开发/测试/运维类,后端开发,0,8号线,大塘,3号线_大塘;3号线_客村;8号线_客村
388830,PHP开发工程师,1-3年,本科,全职,4702810,星际大陆,"2018-06-10 17:42:07",0,深圳,10k-15k,0,"区块链,IPFS,分布式存储,矿池",天使轮,"移动互联网,硬件",15-50人,"""""",4972073,宝安区,i/image3/M00/51/E0/CgpOIFsCU2KAdnqWAABjRB9ijlY761.jpg,"高级,中级,后端开发,C#/.NET,全栈",,西乡,113.847222,22.605291,17:42发布,null,0,0,深圳市星际大陆科技有限公司,today,1528623571000,null,0,null,0,0,0,null,null,开发/测试/运维类,后端开发,0,1号线/罗宝线,固戍,1号线/罗宝线_固戍
132691,PHP开发工程师,3-5年,大专,全职,4408526,高顿教育集团,"2018-06-10 17:36:33",0,上海,15k-25k,1,"管理扁平,领导好,产品领先",B轮,教育,2000人以上,"带薪年假,技能培训,年度旅游,年底双薪",7914262,虹口区,i/image/M00/7D/D3/CgqKkVhIxfKASsFLAAG7zJ6hPpo714.jpg,"教育,电商,高级,系统架构","教育,电商,高级,系统架构","虹口足球场,江湾,广中路",121.475531,31.27179,17:36发布,null,73,1,上海高顿教育培训有限公司,today,1528625527000,null,0,null,0,0,0,null,null,开发/测试/运维类,后端开发,0,8号线,赤峰路,3号线_赤峰路;3号线_虹口足球场;3号线_东宝兴路;8号线_西藏北路;8号线_虹口足球场
53308,技术经理（PHP方向）,5-10年,本科,全职,4609919,妙健康,"2018-06-10 17:29:44",0,北京,15k-30k,1,"六险一金,带薪年假,平台广,福利好",B轮,移动互联网,50-150人,"年度旅游,管理规范,六险一金,弹性工作",1331965,朝阳区,i/image2/M00/36/5A/CgoB5lpGAY-AACDYAAB3tS2XpSI659.png,系统架构,,"大望路,百子湾,华贸",116.47384,39.90257,17:29发布,null,94,1,北京妙医佳信息技术有限公司,today,1528622976000,null,0,null,0,0,0,null,null,开发/测试/运维类,后端开发,0,10号线,九龙山,1号线_国贸;1号线_大望路;7号线_九龙山;10号线_国贸;14号线东段_大望路;14号线东段_九龙山
233304,php网站开发实习生/php程序员,不限,大专,全职,4702774,燃网络,"2018-06-10 17:13:07",0,南京,3k-5k,0,"五险一金,周末双休,提供住宿,年底双薪",未融资,"移动互联网,游戏",少于15人,,9452943,秦淮区,i/image/M00/51/49/CgpEMlly8hSAbcA2AABQfzNbLIM888.png,"初级,Java,c#",,null,118.788719,32.049374,17:13发布,null,38,1,南京网燃网络科技有限公司,today,1528614377000,null,0,null,0,0,0,null,null,开发/测试/运维类,后端开发,0,4号线,新街口,1号线_新街口;1号线_珠江路;1号线_鼓楼;2号线_上海路;2号线_新街口;2号线_大行宫;3号线_大行宫;3号线_浮桥;3号线_鸡鸣寺;4号线_鼓楼;4号线_鸡鸣寺
113102,PHP,1-3年,大专,全职,1429731,璇嘉信息,"2018-06-10 17:08:54",0,上海,8k-15k,0,初创公司，弹性工作，发展空间大。,天使轮,"移动互联网,企业服务",少于15人,"午餐补助,弹性工作,五险一金",3732048,嘉定区,i/image/M00/02/DD/CgqKkVafI-iABXLTAAARDGmQ9F8862.jpg,"MySQL,微信开发,网站开发",,南翔,121.330171,31.294001,17:08发布,null,100,1,上海璇嘉信息技术有限公司,today,1528628664000,null,0,null,0,0,0,null,null,技术,后端开发,0,11号线(花桥),南翔,11号线(嘉定北)_南翔;11号线(花桥)_南翔
264167,Php开发工程师（海外）,3-5年,大专,全职,4692477,酷萌网络（LNI技术有限公司）,"2018-06-10 17:00:50",0,深圳,20k-30k,0,"税后工资,海外经历,包吃住,跨国集团",不需要融资,"移动互联网,游戏",500-2000人,"年底双薪,专项奖金,绩效奖金,带薪年假",8959551,南山区,i/image2/M00/03/12/CgotOVnB31CAYZFSAAAZqNjIoX0321.jpg,"游戏,MySQL,golang","游戏,MySQL,golang","大冲,科技园",113.948041,22.53842,17:00发布,null,45,1,上海酷萌网络科技有限公司,today,1528634991000,null,0,null,0,0,0,null,null,开发/测试/运维类,后端开发,0,2号线/蛇口线,深大,2号线/蛇口线_科苑;1号线/罗宝线_高新园;1号线/罗宝线_深大
94565,PHP工程师,应届毕业生,不限,实习,4230594,图派,"2018-06-10 16:56:43",0,深圳,2k-4k,1,"创新团队,扁平管理,大牛指导,前景无限",天使轮,"社交网络,文化娱乐",15-50人,"股票期权,五险一金,弹性工作,扁平管理",2506796,南山区,i/image/M00/00/77/CgqKkVZK9Z6AOk3NAAAuegQcCO4648.jpg,"视频,Java","视频,Java",null,113.940785,22.522788,16:56发布,null,4,1,深圳市皮埃斯网络科技有限公司,today,1528620976000,null,0,null,0,0,0,null,null,开发/测试/运维类,后端开发,1,2号线/蛇口线,科苑,2号线/蛇口线_后海;2号线/蛇口线_科苑;11号线/机场线_后海
374694,PHP开发工程师,3-5年,本科,全职,4702745,启名方科技（北京）有限公司,"2018-06-10 16:42:21",0,北京,20k-40k,0,"公平,透明,激励,空间",天使轮,"企业服务 教育",15-50人,,10972437,朝阳区,i/image2/M00/52/07/CgoB5lsU9BWANsdaAACAy22vS0Y286.jpg,"资深,后端,大数据,MySQL,架构",,"奥运村,北苑,来广营",116.426254,40.033023,16:42发布,null,2,1,启名方科技（北京）有限公司,today,1528619736000,null,0,null,0,0,0,null,null,开发/测试/运维类,后端开发,0,5号线,北苑,5号线_北苑路北;5号线_立水桥南;13号线_北苑
400558,PHP设计开发工程师,3-5年,大专,全职,4702741,科麦斯,"2018-06-10 16:38:49",0,合肥,12k-15k,0,"五险一金,周末双休,绩效奖金,员工旅游",未融资,移动互联网,少于15人,"""""",11005024,高新区,i/image2/M00/54/DD/CgoB5lsaGU6AF5edAABX-RkAra0076.jpg,"资深,Java,架构",,null,117.139191,31.831408,16:38发布,null,0,0,安徽科麦斯物联网科技有限公司,today,1528627331000,null,0,null,0,0,0,null,null,开发/测试/运维类,前端开发/移动开发,0,null,null,null
112992,PHP工程师（南京）,1-3年,本科,全职,3887037,美篇,"2018-06-10 19:45:03",0,南京,10k-20k,0,"工作时间弹,管理扁平,牛人多,福利好",A轮,"移动互联网,社交网络",50-150人,"扁平管理,弹性工作,氛围融洽,牛人多",3755461,雨花台区,i/image/M00/45/64/CgpFT1ljVIOADCoeAAGenQd8spg806.png,"信息安全,中级,后端,laravel,全栈","信息安全,中级,后端,laravel,全栈",null,118.76433,31.97122,19:45发布,null,100,2,南京蓝鲸人网络科技有限公司,today,1528631074000,null,0,null,0,0,0,null,null,开发/测试/运维类,后端开发,0,1号线,天隆寺,1号线_软件大道;1号线_天隆寺
36009,软件开发工程师（.Net、Java、PHP、前端）,应届毕业生,本科,全职,4257048,途虎养车网,"2018-06-10 18:30:40",0,上海,10k-12k,1,"公司规模大,扁平化管理,发展空间大,岗位晋升",D轮及以上,移动互联网,2000人以上,"技能培训,节日礼物,绩效奖金,岗位晋升",629661,闵行区,i/image/M00/7C/F1/Cgp3O1hGikiAJl6jAANpB1PThVo682.jpg,"信息安全,汽车,大数据,web","信息安全,汽车,大数据,web","古美,南方商城,梅陇",121.398332,31.131918,18:30发布,null,6,1,上海阑途信息技术有限公司,today,1528627753000,null,0,null,0,0,0,null,null,开发/测试/运维类,软件开发,1,12号线,顾戴路,1号线_外环路;1号线_莲花路;12号线_顾戴路
123777,php开发工程师-,3-5年,本科,全职,4514643,通力互联,"2018-06-10 18:17:24",0,北京,10k-14k,0,"五险一金,带薪年假,免费早餐",不需要融资,"电子商务,企业服务",2000人以上,"绩效奖金,交通补助,定期体检,通讯津贴",9328764,海淀区,i/image/M00/2E/03/CgqKkVc9jmCAI8DpAAD09YLPnBk157.png,"linux,后端",,"中关村,万泉河,苏州街",116.306337,39.981802,18:17发布,null,0,1,北京通力互联技术服务有限公司,today,1528626749000,null,0,null,0,0,0,null,null,开发/测试/运维类,后端开发,0,10号线,海淀黄庄,4号线大兴线_海淀黄庄;4号线大兴线_中关村;4号线大兴线_北京大学东门;10号线_苏州街;10号线_海淀黄庄
211701,PHP工程师（地点：菲律宾马尼拉）,3-5年,大专,全职,3969802,大金科技,"2018-06-10 17:58:15",0,韶关,12k-24k,1,"年终奖金,年假30天,提供食宿,机票报销",不需要融资,"移动互联网,数据服务",150-500人,"机票签证全包,生日礼金,年终分红,年底双薪",9181775,武江区,i/image/M00/47/59/CgpEMllfZ2uADICaAAD3mwcawmg270.jpg,"高级,后端开发,全栈,Shell,MySQL",,null,113.58934,24.795386,17:58发布,null,100,1,安徽立品网络科技有限公司,today,1528620527000,null,0,null,0,0,0,null,null,开发/测试/运维类,后端开发,0,null,null,null
264167,Php开发工程师（海外）,3-5年,大专,全职,4692506,酷萌网络（LNI技术有限公司）,"2018-06-10 17:00:46",0,上海,20k-30k,0,"税后工资,海外经历,包吃住,跨国集团",不需要融资,"移动互联网,游戏",500-2000人,"年底双薪,专项奖金,绩效奖金,带薪年假",8959551,闵行区,i/image2/M00/03/12/CgotOVnB31CAYZFSAAAZqNjIoX0321.jpg,,,null,121.452905,31.022678,17:00发布,null,45,1,上海酷萌网络科技有限公司,today,1528634991000,null,0,null,0,0,0,null,null,开发/测试/运维类,后端开发,0,null,null,null
94565,php后端工程师,3-5年,本科,全职,4665420,图派,"2018-06-10 16:56:42",0,深圳,15k-20k,1,"大牛指导,创新团队,扁平管理,创新产品",天使轮,"社交网络,文化娱乐",15-50人,"股票期权,五险一金,弹性工作,扁平管理",2506796,南山区,i/image/M00/00/77/CgqKkVZK9Z6AOk3NAAAuegQcCO4648.jpg,"信息安全,MySQL,架构","信息安全,MySQL,架构",null,113.940785,22.522788,16:56发布,null,4,1,深圳市皮埃斯网络科技有限公司,today,1528620976000,null,0,null,0,0,0,null,null,开发/测试/运维类,后端开发,0,2号线/蛇口线,科苑,2号线/蛇口线_后海;2号线/蛇口线_科苑;11号线/机场线_后海
233304,可学徒java/c++/web/PHP/安卓软件,不限,大专,全职,4702754,燃网络,"2018-06-10 16:50:28",0,南京,3k-5k,0,"五险一金,周末双休,提供住宿,年底双薪",未融资,"移动互联网,游戏",少于15人,,9452943,秦淮区,i/image/M00/51/49/CgpEMlly8hSAbcA2AABQfzNbLIM888.png,"移动互联网,初级,实习","移动互联网,初级,实习",null,118.788719,32.049374,16:50发布,null,38,1,南京网燃网络科技有限公司,today,1528614377000,null,0,null,0,0,0,null,null,开发/测试/运维类,后端开发,0,4号线,新街口,1号线_新街口;1号线_珠江路;1号线_鼓楼;2号线_上海路;2号线_新街口;2号线_大行宫;3号线_大行宫;3号线_浮桥;3号线_鸡鸣寺;4号线_鼓楼;4号线_鸡鸣寺
167745,高级PHP开发工程师,5-10年,本科,全职,4604300,SuperADS,"2018-06-10 16:36:52",0,广州,15k-25k,1,"高薪诱惑,大数据平台,丰厚奖金,项目前景好",A轮,"移动互联网,广告营销",50-150人,"股票期权,绩效奖金,专项奖金,年终分红",6827387,天河区,i/image2/M00/31/30/CgotOVo869uATwg4AAAKb_FiYNM315.png,"资深,后端开发,Yii,全栈",,null,113.371527,23.123138,16:36发布,"免费下午茶,创新人才支持,地铁周边,每天管两餐,创新项目支持,晋升机制,创新经费支持",100,1,广州线条信息科技有限公司,disabled,1528633886000,null,0,null,0,0,0,null,null,开发/测试/运维类,后端开发,0,5号线,科韵路,5号线_员村;5号线_科韵路
258751,资深技术经理（PHP）,5-10年,本科,全职,4106952,乐墨科技,"2018-06-10 16:35:53",0,深圳,15K-25K,1,"弹性上班,行业领先",不需要融资,"移动互联网,生活服务",少于15人,"股票期权,带薪年假,弹性工作,技能培训",8878531,南山区,i/image/M00/6B/72/CgpFT1mx9aiAKnSIAAByG9PxBvk106.jpg,"社交,ThinkPHP,架构","社交,ThinkPHP,架构",南油,113.921394,22.516729,16:35发布,null,100,1,深圳市爱乐墨科技有限公司,today,1528628598000,null,0,null,0,0,0,null,null,开发/测试/运维类,后端开发,0,11号线/机场线,南山,11号线/机场线_南山
374694,PHP开发工程师,3-5年,本科,全职,4702682,启名方科技（北京）有限公司,"2018-06-10 16:33:54",0,北京,20k-40k,0,"公平,透明,前景,激励",天使轮,"企业服务 教育",15-50人,,10972437,朝阳区,i/image2/M00/52/07/CgoB5lsU9BWANsdaAACAy22vS0Y286.jpg,"资深,后端开发,架构师,区块链,架构",,"奥运村,北苑,来广营",116.426254,40.033023,16:33发布,null,2,1,启名方科技（北京）有限公司,today,1528619736000,null,0,null,0,0,0,null,null,开发/测试/运维类,后端开发,0,5号线,北苑,5号线_北苑路北;5号线_立水桥南;13号线_北苑
47782,高级PHP软件开发工程师,3-5年,大专,全职,4702728,虎彩,"2018-06-10 16:22:49",0,东莞,8k-13k,1,"专业培训,发展空间大,团队大牛多",上市公司,"企业服务,分类信息",2000人以上,"技能培训,带薪年假,岗位晋升,年度旅游",928262,东莞市市辖区,image1/M00/00/7B/Cgo8PFTUXb-ALMmyAAB-6QP0Qso162.png,,,null,39.897445,116.331398,16:22发布,null,0,0,虎彩印艺股份有限公司,today,1528618770000,null,0,null,0,0,0,null,null,开发/测试/运维类,后端开发,0,null,null,null
2474,PHP研发工程师(J171212022),1-3年,本科,全职,3951501,滴滴出行,"2018-06-10 16:09:41",0,北京,20k-40k,1,广阔平台、急速成长、诱人福利,不需要融资,移动互联网,2000人以上,"弹性工作,节日礼物,岗位晋升,技能培训",2429345,海淀区,i/image/M00/00/20/Cgp3O1YtmkSAZjX1AAA78knErXc273.jpg,滴滴,,null,40.04683,40.04683,16:09发布,null,3,1,北京嘀嘀无限科技发展有限公司,today,1528618160000,null,0,null,0,0,0,null,null,后端开发,[后端开发],0,null,null,null
80785,PHP高手,3-5年,大专,全职,1339728,宏思锐达,"2018-06-10 16:04:07",0,贵阳,8k-16k,0,贵州互联网开发第一品牌,未融资,"移动互联网,电子商务",15-50人,"节日礼物,年底双薪,股票期权,专项奖金",2047963,南明区,i/image/M00/74/B4/Cgp3O1gyhKiAEC1rAAAvh7FODWU806.jpg,,,"花果园,太慈桥,二桥",106.69223954,26.56924985,16:04发布,null,100,3,贵州宏思锐达科技有限公司,today,1528634310000,null,0,null,0,0,0,null,null,技术,后端开发,0,null,null,null
1730,PHP开发,3-5年,本科,全职,4279985,一下科技,"2018-06-10 15:56:53",0,北京,33k-45k,1,"入职就送iPhone x",D轮及以上,"移动互联网,文化娱乐",500-2000人,"带薪年假,绩效奖金,岗位晋升,管理规范",9720073,朝阳区,i/image/M00/22/61/Cgp3O1cUq6yAMA-_AAAOM7mNTQc202.jpg,"中级,后端",,"望京,大山子,酒仙桥",116.48919426,39.999364,15:56发布,null,0,0,炫一下（北京）科技有限公司,today,1528619982000,null,0,null,0,0,0,null,null,开发/测试/运维类,后端开发,0,15号线,望京东,15号线_望京东
139125,php后端开发,1-3年,本科,全职,2616597,中青科教,"2018-06-10 15:50:59",0,北京,12k-15k,1,无限可能等你创造～,天使轮,"教育,数据服务",15-50人,"年底双薪,午餐补助,带薪年假",5652367,海淀区,i/image/M00/46/5D/CgqKkVeMhnyAUCwdAACpDGMDd54333.png,"中级,Java,架构师,平台/后台",,"学院路,五道口",116.355051,39.988321,15:50发布,null,11,1,中青科教（北京）文化发展有限公司,today,1528616965000,null,0,null,0,0,0,null,null,开发/测试/运维类,后端开发,0,15号线,西土城,10号线_西土城;15号线_六道口
36009,软件开发工程师（.Net、Java、PHP、前端、,应届毕业生,本科,全职,4256944,途虎养车网,"2018-06-10 18:30:40",0,上海,10k-12k,1,"发展空间大,岗位晋升,扁平化管理,公司规模大",D轮及以上,移动互联网,2000人以上,"技能培训,节日礼物,绩效奖金,岗位晋升",629661,闵行区,i/image/M00/7C/F1/Cgp3O1hGikiAJl6jAANpB1PThVo682.jpg,"信息安全,汽车,大数据,web","信息安全,汽车,大数据,web","古美,南方商城,梅陇",121.398332,31.131918,18:30发布,null,6,1,上海阑途信息技术有限公司,today,1528627753000,null,0,null,0,0,0,null,null,开发/测试/运维类,软件开发,1,12号线,顾戴路,1号线_外环路;1号线_莲花路;12号线_顾戴路
123777,PHP开发工程师（北京）,3-5年,本科,全职,4554557,通力互联,"2018-06-10 18:17:23",0,北京,10k-14k,0,"早餐夜宵券,五险一金,企业班车,带薪年假",不需要融资,"电子商务,企业服务",2000人以上,"绩效奖金,交通补助,定期体检,通讯津贴",9328764,海淀区,i/image/M00/2E/03/CgqKkVc9jmCAI8DpAAD09YLPnBk157.png,"linux,后端",,"中关村,万泉河,苏州街",116.306337,39.981802,18:17发布,null,0,1,北京通力互联技术服务有限公司,today,1528626749000,null,0,null,0,0,0,null,null,开发/测试/运维类,后端开发,0,10号线,海淀黄庄,4号线大兴线_海淀黄庄;4号线大兴线_中关村;4号线大兴线_北京大学东门;10号线_苏州街;10号线_海淀黄庄
211701,PHP工程师（地点：菲律宾马尼拉）,3-5年,大专,全职,3969335,大金科技,"2018-06-10 17:58:15",0,上海,12k-24k,1,"年终奖金,年假30天,提供食宿,机票报销",不需要融资,"移动互联网,数据服务",150-500人,"机票签证全包,生日礼金,年终分红,年底双薪",9181775,浦东新区,i/image/M00/47/59/CgpEMllfZ2uADICaAAD3mwcawmg270.jpg,"高级,后端开发,Java,架构师,全栈",,"塘桥,塘桥,南浦大桥,陆家嘴,陆家嘴,塘桥,南浦大桥,陆家嘴,南浦大桥",121.519518,31.210048,17:58发布,null,100,1,安徽立品网络科技有限公司,today,1528620527000,null,0,null,0,0,0,null,null,开发/测试/运维类,后端开发,0,4号线,塘桥,4号线_蓝村路;4号线_塘桥;6号线_上海儿童医学中心;6号线_蓝村路;6号线_浦电路(6号线)
264167,Php开发工程师（海外）,3-5年,大专,全职,4692524,酷萌网络（LNI技术有限公司）,"2018-06-10 17:00:45",0,北京,20k-30k,0,"税后工资,海外经历,包吃住,跨国集团",不需要融资,"移动互联网,游戏",500-2000人,"年底双薪,专项奖金,绩效奖金,带薪年假",8959551,朝阳区,i/image2/M00/03/12/CgotOVnB31CAYZFSAAAZqNjIoX0321.jpg,"游戏,MySQL,golang","游戏,MySQL,golang",null,116.426174,39.9337,17:00发布,null,45,1,上海酷萌网络科技有限公司,today,1528634991000,null,0,null,0,0,0,null,null,开发/测试/运维类,后端开发,0,机场线,东四,2号线_东直门;2号线_东四十条;2号线_朝阳门;5号线_东四;5号线_张自忠路;5号线_北新桥;6号线_朝阳门;6号线_东四;13号线_东直门;机场线_东直门
167745,PHP开发工程师,3-5年,本科,全职,3616753,SuperADS,"2018-06-10 16:36:52",0,广州,10k-20k,1,"五险一金,中晚餐,发展迅速",A轮,"移动互联网,广告营销",50-150人,"股票期权,绩效奖金,专项奖金,年终分红",6827387,天河区,i/image2/M00/31/30/CgotOVo869uATwg4AAAKb_FiYNM315.png,"广告营销,中级,大数据,ThinkPHP,网站开发","广告营销,中级,大数据,ThinkPHP,网站开发",null,113.371527,23.123138,16:36发布,"免费下午茶,创新人才支持,地铁周边,每天管两餐,创新项目支持,晋升机制,创新经费支持",100,1,广州线条信息科技有限公司,disabled,1528633886000,null,0,null,0,0,0,null,null,开发/测试/运维类,后端开发,0,5号线,科韵路,5号线_员村;5号线_科韵路
2474,PHP高级工程师(J180524001),3-5年,本科,全职,4665259,滴滴出行,"2018-06-10 16:09:40",0,北京,20k-40k,1,广阔平台、急速成长、诱人福利,不需要融资,移动互联网,2000人以上,"弹性工作,节日礼物,岗位晋升,技能培训",2429345,海淀区,i/image/M00/00/20/Cgp3O1YtmkSAZjX1AAA78knErXc273.jpg,滴滴,,null,40.04683,40.04683,16:09发布,null,3,1,北京嘀嘀无限科技发展有限公司,today,1528618160000,null,0,null,0,0,0,null,null,后端开发,[后端开发],0,null,null,null
19471,PHP软件开发工程师,3-5年,本科,全职,4562837,万表,"2018-06-10 15:50:10",0,广州,10k-20k,1,"平台发展好,周末双休,五险一金,包工作餐",B轮,"移动互联网,电子商务",150-500人,"绩效奖金,岗位晋升,技能培训,员工优惠折扣",222143,番禺区,image1/M00/00/24/Cgo8PFTUWHyANEpfAABnz-1mqGc824.jpg,"高级,中级,后端开发,Java,后端",,null,113.335498,23.01596,15:50发布,null,66,1,广州市万表科技股份有限公司,today,1528616906000,null,0,null,0,0,0,null,null,开发/测试/运维类,后端开发,0,3号线,大石,3号线_大石
2098,高级PHP工程师,3-5年,本科,全职,4153908,掌阅,"2018-06-10 15:47:14",0,北京,20k-30k,1,"薪酬福利佳,团队氛围佳,扁平化管理",上市公司,移动互联网,500-2000人,"专项奖金,带薪年假,年度旅游,扁平管理",5935445,朝阳区,i/image/M00/B8/D7/Cgp3O1jCJr-AZ4r7AACTl0VdoIo863.png,"支付,Java,MySQL","支付,Java,MySQL",null,116.514211,39.905841,15:47发布,null,100,2,掌阅科技股份有限公司,today,1528631849000,null,0,null,0,0,0,null,null,开发/测试/运维类,后端开发,0,八通线,高碑店,1号线_四惠东;八通线_四惠东;八通线_高碑店
102322,PHP工程师,1-3年,本科,全职,2313452,百度外卖,"2018-06-10 15:43:11",0,北京,15k-30k,1,大牛工作团队,不需要融资,"移动互联网,O2O",2000人以上,"绩效奖金,股票期权,交通补助,定期体检",1509130,海淀区,image2/M00/0F/99/CgqLKVYpCC-AM3x0AAAXqRToP2Q509.jpg?cc=0.06094056670553982,,,"上地,马连洼,西二旗",116.30865944,40.03928503,15:43发布,null,0,0,北京小度信息科技有限公司,today,1528616586000,null,0,null,0,0,0,null,null,技术,后端开发,0,13号线,上地,13号线_上地
347218,PHP工程师,1-3年,不限,全职,4290984,珺达科技,"2018-06-10 15:41:55",0,广州,8K-15K,0,"餐补,双休,活动多,零食多",天使轮,"移动互联网,社交网络",15-50人,,4833467,天河区,i/image3/M00/3D/8E/Cgq2xlqwf1iAZCtQAAApd7QBACk301.png,"中级,Java,MySQL",,"五山,石牌,天河北",null,null,15:41发布,null,63,1,广州珺达科技有限公司,today,1528634917000,null,0,null,0,0,0,null,null,开发/测试/运维类,软件开发,0,null,null,null
82538,PHP,1-3年,本科,全职,2991290,口袋记账,"2018-06-10 15:38:49",0,上海,10k-15k,1,"发展空间大,晋升机会多,工作氛围好",A轮,移动互联网,50-150人,"年底奖金,季度奖金,岗位晋升,五险一金",3641789,浦东新区,i/image2/M00/05/FD/CgotOVnIyUuABlp-AAAk3LH9BGw923.png,"高级,中级,全栈,laravel,高并发",,"张江,唐镇",121.625686,31.203324,15:38发布,null,44,1,上海奇鸟互联网金融信息服务有限公司,today,1528616090000,null,0,null,0,0,0,null,null,开发/测试/运维类,后端开发,0,2号线2号线东延,广兰路,2号线2号线东延_广兰路
31745,资深PHP,5-10年,大专,全职,4272057,找靓机网,"2018-06-10 15:38:20",0,深圳,15k-20k,1,"平台大,发展前景,机会多",B轮,"移动互联网,电子商务",150-500人,"技能培训,绩效奖金,岗位晋升,扁平管理",472074,福田区,i/image/M00/B5/AE/Cgp3O1i-kNGAermVAACdVwOssBk944.png,"Java,redis,架构",,"华强北,福华新村,上步",114.083397,22.539045,15:38发布,null,100,1,深圳市万事富科技有限公司,today,1528615165000,null,0,null,0,0,0,null,null,开发/测试/运维类,后端开发,0,2号线/蛇口线,华强北,2号线/蛇口线_华强北;2号线/蛇口线_燕南;1号线/罗宝线_科学馆;1号线/罗宝线_华强路;3号线/龙岗线_华新;7号线_赤尾;7号线_华强南;7号线_华强北;7号线_华新
69662,PHP开发工程师,1-3年,大专,全职,4321755,在乎,"2018-06-10 15:33:21",0,厦门,8k-10k,1,"扁平化管理,团队氛围好",未融资,移动互联网,少于15人,"节日礼物,股票期权,岗位晋升,扁平管理",1688798,思明区,i/image/M00/A0/AB/CgqKkVimnQ2AVDqYAABpPHukBHA492.jpg,"高级,MySQL,后端",,"中华,开元",118.08429,24.460899,15:33发布,null,0,0,在乎（厦门）信息技术有限公司,today,1528615991000,null,0,null,0,0,0,null,null,开发/测试/运维类,后端开发,0,null,null,null
63847,PHP高级工程师,5-10年,本科,全职,2914401,垂衣,"2018-06-10 15:15:09",0,杭州,20k-40k,1,"用户在身边,核心业务,无穷挑战,成长潜力大",A轮,"电子商务,数据服务",150-500人,"混日子的别来,干活干得酸爽,股票期权,带薪年假",7414121,滨江区,i/image/M00/02/9B/CgqKkVaVwfiABn2QAAAovc83MUc639.png,"专家,资深,Java,web",,长河,120.180381,30.184283,15:15发布,null,100,3,杭州垂衣网络科技有限公司,disabled,1528615313000,null,0,null,0,0,0,null,null,开发/测试/运维类,软件开发,0,null,null,null
5608,高级PHP运营开发工程师,3-5年,本科,全职,4161580,腾讯,"2018-06-10 15:13:18",0,上海,20k-40k,0,"发展机会,带薪休假,年终奖",上市公司,移动互联网,2000人以上,"绩效奖金,专项奖金,年底双薪,五险一金",3048232,徐汇区,image1/M00/00/0C/Cgo8PFTUWB-AE6FpAACuIDdRR8I018.jpg,"电商,游戏,C/C++,MySQL","电商,游戏,C/C++,MySQL",null,121.397366,31.167476,15:13发布,null,0,0,腾讯科技（上海）有限公司,disabled,1528614770000,null,0,null,0,0,0,null,null,开发/测试/运维类,后端开发,0,9号线,东兰路,9号线_漕河泾开发区;9号线_合川路;12号线_东兰路;12号线_虹梅路;12号线_虹漕路
211701,PHP工程师,3-5年,大专,全职,3991851,大金科技,"2018-06-10 17:58:15",0,赣州,13k-26k,1,"年终奖金,年假30天,提供食宿,机票报销",不需要融资,"移动互联网,数据服务",150-500人,"机票签证全包,生日礼金,年终分红,年底双薪",9181775,章贡区,i/image/M00/47/59/CgpEMllfZ2uADICaAAD3mwcawmg270.jpg,"高级,后端开发,架构师,全栈,Shell",,null,114.921171,25.817816,17:58发布,null,100,1,安徽立品网络科技有限公司,today,1528620527000,null,0,null,0,0,0,null,null,开发/测试/运维类,后端开发,0,null,null,null
264167,Php开发工程师（海外）,3-5年,大专,全职,3634845,酷萌网络（LNI技术有限公司）,"2018-06-10 17:00:34",0,广州,20k-30k,0,"海外工作,税后工资,包吃住,跨国集团",不需要融资,"移动互联网,游戏",500-2000人,"年底双薪,专项奖金,绩效奖金,带薪年假",8959551,越秀区,i/image2/M00/03/12/CgotOVnB31CAYZFSAAAZqNjIoX0321.jpg,"游戏,广告营销,MySQL,后端,golang","游戏,广告营销,MySQL,后端,golang","岭南,建设",113.266841,23.128524,17:00发布,null,45,1,上海酷萌网络科技有限公司,today,1528634991000,null,0,null,0,0,0,null,null,开发/测试/运维类,后端开发,0,2号线,北京路,1号线_西门口;1号线_公园前;1号线_农讲所;2号线_公园前;2号线_纪念堂;2号线_越秀公园;6号线_北京路
2474,PHP开发工程师--产品技术部(J13195),3-5年,本科,全职,2400609,滴滴出行,"2018-06-10 16:09:40",0,北京,20k-40k,1,六险一金、15薪、期权,不需要融资,移动互联网,2000人以上,"弹性工作,节日礼物,岗位晋升,技能培训",2429345,海淀区,i/image/M00/00/20/Cgp3O1YtmkSAZjX1AAA78knErXc273.jpg,,,"西北旺,马连洼,上地",116.28896,40.04373007,16:09发布,null,3,1,北京嘀嘀无限科技发展有限公司,today,1528618160000,null,0,null,0,0,0,null,null,技术,后端开发,0,null,null,null
2098,PHP研发工程师,3-5年,本科,全职,2375553,掌阅,"2018-06-10 15:47:13",0,北京,15k-25k,1,"管理扁平化,薪资福利佳,地铁沿线",上市公司,移动互联网,500-2000人,"专项奖金,带薪年假,年度旅游,扁平管理",6117890,朝阳区,i/image/M00/B8/D7/Cgp3O1jCJr-AZ4r7AACTl0VdoIo863.png,,,"四惠,十里堡,甘露园",116.514211,39.905841,15:47发布,null,100,1,掌阅科技股份有限公司,threeDays,1528440220000,null,0,null,0,0,0,null,null,技术,后端开发,0,八通线,高碑店,1号线_四惠东;八通线_四惠东;八通线_高碑店
102322,PHP高级开发工程师,不限,本科,全职,4012455,百度外卖,"2018-06-10 15:43:10",0,北京,18k-36k,1,新零售项目；薪资福利优厚,不需要融资,"移动互联网,O2O",2000人以上,"绩效奖金,股票期权,交通补助,定期体检",1509130,海淀区,image2/M00/0F/99/CgqLKVYpCC-AM3x0AAAXqRToP2Q509.jpg?cc=0.06094056670553982,"中级,初级,MySQL,后端",,null,0.0,0.0,15:43发布,null,0,0,北京小度信息科技有限公司,today,1528616586000,null,0,null,0,0,0,null,null,开发/测试/运维类,后端开发,0,null,null,null
31745,高级php开发工程师,5-10年,大专,全职,4387974,找靓机网,"2018-06-10 15:38:20",0,深圳,25k-40k,1,"优秀团队,平台大",B轮,"移动互联网,电子商务",150-500人,"技能培训,绩效奖金,岗位晋升,扁平管理",472074,福田区,i/image/M00/B5/AE/Cgp3O1i-kNGAermVAACdVwOssBk944.png,"Java,架构",,"华强北,福华新村,上步",114.083397,22.539045,15:38发布,null,100,1,深圳市万事富科技有限公司,today,1528615165000,null,0,null,0,0,0,null,null,开发/测试/运维类,后端开发,0,2号线/蛇口线,华强北,2号线/蛇口线_华强北;2号线/蛇口线_燕南;1号线/罗宝线_科学馆;1号线/罗宝线_华强路;3号线/龙岗线_华新;7号线_赤尾;7号线_华强南;7号线_华强北;7号线_华新
21512,Php工程师,3-5年,本科,全职,1759351,工程师爸爸,"2018-06-10 15:13:13",0,上海,15k-25k,1,千万用户的产品、儿童领域No1、工作氛围好,B轮,"移动互联网,教育",50-150人,"专项奖金,股票期权,带薪年假,绩效奖金",246634,浦东新区,i/image/M00/A3/01/Cgp3O1iqTQ6AK3RYAAAMpg5htuA453.png,"教育,Java,后端,儿童教育,音视频","教育,Java,后端,儿童教育,音视频",张江,121.584365,31.207209,15:13发布,null,53,1,上海童锐网络科技有限公司,today,1528634063000,null,0,null,0,0,0,null,null,技术,后端开发,0,2号线,张江高科,2号线_张江高科
395648,诚聘PHP开发工程师,1-3年,大专,全职,4656185,东莞市迈捷网络科技有限公司,"2018-06-10 15:13:08",0,东莞,6k-8k,0,"伙食补助,不加班,月休4天",未融资,移动互联网,15-50人,"""""",10945764,东莞市市辖区,i/image3/M00/53/F7/Cgq2xlsPY5GABgHeAAEeSty4HRs507.jpg,"后端,ThinkPHP",,null,113.707771,22.831322,15:13发布,null,100,1,东莞市迈捷网络科技有限公司,today,1528614781000,null,0,null,0,0,0,null,null,开发/测试/运维类,后端开发,0,null,null,null
43055,PHP开发工程师,3-5年,本科,全职,4247036,轻松筹,"2018-06-10 15:10:31",0,北京,10k-15k,1,"五险一金 氛围好 偏平化 领导NICE 技术大牛",C轮,"移动互联网,金融",150-500人,"节日礼物,股票期权,扁平管理,领导好",811327,东城区,image1/M00/2A/C0/CgYXBlVtOd6ADiZhAABMN1FvJIM082.png,"电商,中级,架构","电商,中级,架构","和平里,雍和宫,北新桥",116.42454227,39.94877813,15:10发布,null,100,1,北京轻松筹网络科技有限公司,today,1528616387000,null,0,null,0,0,0,null,null,开发/测试/运维类,后端开发,0,机场线,东直门,2号线_安定门;2号线_雍和宫;2号线_东直门;5号线_北新桥;5号线_雍和宫;5号线_和平里北街;13号线_柳芳;13号线_东直门;机场线_东直门
130800,"PHP全栈 后台工程师",1-3年,不限,全职,4125296,舞牛科技,"2018-06-10 15:06:22",0,成都,4K-8K,0,双休，不加班,不需要融资,"移动互联网,企业服务",少于15人,"年底双薪,股票期权,专项奖金,年终分红",6967875,双流县,i/image3/M00/10/B0/CgpOIFpq-tGAQHn5AAAgIBr5Gos200.png,js.vue,,华阳,104.042464,30.4989,15:06发布,null,100,1,成都舞牛科技有限公司,disabled,1528631642000,null,0,null,0,0,0,null,null,开发/测试/运维类,软件开发,0,null,null,null
185083,PHP高级工程师,3-5年,本科,全职,4483303,文网亿联,"2018-06-10 15:04:39",0,武汉,10k-20k,1,"领导帅,氛围好,管理扁平",A轮,移动互联网,150-500人,"年底双薪,专项奖金,带薪年假,绩效奖金",4844946,东湖新技术开发区,i/image/M00/C1/AD/Cgp3O1jYc_CAfdztAAAdx8UgWTs625.png,"MySQL,后端,redis",,光谷,114.410537,30.482557,15:04发布,null,34,1,武汉文网亿联科技有限公司,today,1528620344000,null,0,null,0,0,0,null,null,开发/测试/运维类,后端开发,0,null,null,null
344714,PHP,1-3年,大专,全职,4486392,水滴区块链,"2018-06-10 14:47:44",0,厦门,8k-15k,0,"前景好,福利好,五险一金",不需要融资,"信息安全,数据服务",15-50人,"扁平管理,风口行业,代币奖励,岗位晋升",10262007,湖里区,i/image3/M00/41/49/CgpOIFqz6TqAMDryAACPCcaqv4g878.jpg,"中级,系统开发",,金尚路,118.156829,24.526728,14:47发布,null,6,0,厦门水滴链动科技有限公司,today,1528633992000,null,0,null,0,0,0,null,null,开发/测试/运维类,前端开发/移动开发,0,null,null,null
37319,PHP高级开发工程师,1-3年,本科,全职,3810874,懒投资,"2018-06-10 14:45:22",0,北京,15k-30k,1,"七险一金,旅游基金,弹性办公,绩效奖金",A轮,金融,150-500人,"年底双薪,绩效奖金,岗位晋升,年度旅游",661609,朝阳区,i/image/M00/39/B1/CgpFT1lMzJuAYEYmAABjIgi5QXY196.jpg,"金融,支付,医疗健康,资深,Java","金融,支付,医疗健康,资深,Java",null,116.452667,39.932806,14:45发布,null,100,1,北京大家玩科技有限公司,today,1528613101000,null,0,null,0,0,0,null,null,开发/测试/运维类,后端开发,0,10号线,团结湖,6号线_呼家楼;6号线_东大桥;10号线_农业展览馆;10号线_团结湖;10号线_呼家楼
229115,PHP开发工程师,3-5年,大专,全职,4693692,洪涛教育,"2018-06-10 14:45:08",0,北京,15k-25k,0,"公司平台大,行业前景好,团队氛围好,薪酬福利好",上市公司,"教育,移动互联网",500-2000人,"带薪年假,年度旅游,节日礼物,帅哥多",10482528,海淀区,i/image/M00/57/42/CgpEMll_3xCAVlovAABATMMQAnM806.png,"高级,中级,Java,后端",,"中关村,双榆树,人民大学",116.321367,39.966956,14:45发布,null,7,1,深圳市前海洪涛教育科技有限公司,today,1528593200000,null,0,null,0,0,0,null,null,开发/测试/运维类,后端开发,0,10号线,海淀黄庄,4号线大兴线_魏公村;4号线大兴线_人民大学;4号线大兴线_海淀黄庄;10号线_海淀黄庄;10号线_知春里
36162,PHP后端工程师,3-5年,本科,全职,4538373,作业盒子,"2018-06-10 14:21:59",0,北京,15k-30k,1,"大平台,技术牛,好前景,核心职位",C轮,"移动互联网,教育",500-2000人,"技能培训,年底双薪,节日礼物,年度旅游",10158439,朝阳区,i/image/M00/29/C7/Cgp3O1cwXzWAPpvjAAAYnaMmScM575.png,"后端开发,Yii,laravel,架构",,null,116.48117,39.996968,14:21发布,null,91,1,北京作业盒子科技有限公司,today,1528628848000,null,0,null,0,0,0,null,null,开发/测试/运维类,后端开发,0,15号线,望京东,14号线东段_望京;14号线东段_阜通;14号线东段_望京南;15号线_望京东;15号线_望京
43055,高级PHP开发工程师,3-5年,本科,全职,4654269,轻松筹,"2018-06-10 15:10:31",0,北京,20k-35k,1,"五险一金,绩效奖金,位置便利",C轮,"移动互联网,金融",150-500人,"节日礼物,股票期权,扁平管理,领导好",811327,东城区,image1/M00/2A/C0/CgYXBlVtOd6ADiZhAABMN1FvJIM082.png,架构,,null,116.424164,39.948555,15:10发布,null,100,1,北京轻松筹网络科技有限公司,today,1528616387000,null,0,null,0,0,0,null,null,开发/测试/运维类,后端开发,0,机场线,东直门,2号线_安定门;2号线_雍和宫;2号线_东直门;5号线_北新桥;5号线_雍和宫;5号线_和平里北街;13号线_柳芳;13号线_东直门;机场线_东直门
37319,PHP开发工程师,1-3年,本科,全职,4282249,懒投资,"2018-06-10 14:45:20",0,北京,15k-30k,1,七险一金、旅游基金、弹性办公、绩效奖金,A轮,金融,150-500人,"年底双薪,绩效奖金,岗位晋升,年度旅游",661609,朝阳区,i/image/M00/39/B1/CgpFT1lMzJuAYEYmAABjIgi5QXY196.jpg,"金融,支付,医疗健康,Java","金融,支付,医疗健康,Java","工体,三里屯,团结湖",116.45407501,39.93357605,14:45发布,null,100,1,北京大家玩科技有限公司,today,1528613101000,null,0,null,0,0,0,null,null,开发/测试/运维类,后端开发,0,10号线,团结湖,6号线_呼家楼;6号线_东大桥;10号线_农业展览馆;10号线_团结湖;10号线_呼家楼
36162,PHP后端工程师,3-5年,本科,全职,4393698,作业盒子,"2018-06-10 14:21:59",0,北京,15k-30k,1,"大平台,技术牛,好前景,核心职位",C轮,"移动互联网,教育",500-2000人,"技能培训,年底双薪,节日礼物,年度旅游",10158439,朝阳区,i/image/M00/29/C7/Cgp3O1cwXzWAPpvjAAAYnaMmScM575.png,"后端开发,GO,redis,架构",,null,116.48117,39.996968,14:21发布,null,91,1,北京作业盒子科技有限公司,today,1528628848000,null,0,null,0,0,0,null,null,开发/测试/运维类,后端开发,0,15号线,望京东,14号线东段_望京;14号线东段_阜通;14号线东段_望京南;15号线_望京东;15号线_望京
65978,PHP开发工程师,1-3年,不限,全职,610530,品阔,"2018-06-10 14:04:55",0,深圳,5k-10k,0,五险一金，带薪年假，饭补,不需要融资,"移动互联网,教育",15-50人,"年底双薪,股票期权,带薪年假,绩效奖金",1626582,南山区,i/image2/M00/26/78/CgoB5loe7WOAK-dUAAAlpzAtziI349.png,,,"蛇口,南油,后海",113.9208,22.499013,14:04发布,null,77,1,深圳品阔信息技术有限公司,disabled,1528630203000,null,0,null,0,0,0,null,null,技术,后端开发,0,2号线/蛇口线,水湾,2号线/蛇口线_水湾
342256,PHP开发工程师,3-5年,本科,全职,4501008,泽谦网络,"2018-06-10 13:28:49",0,广州,10k-12k,0,"周末双休,五险一金,专业培训,年终奖金",不需要融资,移动互联网,15-50人,"""""",10221432,天河区,i/image2/M00/49/64/CgoB5lrkGsyAPX8mAAAS7rG2glY581.jpg,后端,,"珠江新城,沙河",113.319767,23.12675,13:28发布,null,46,1,广州泽谦网络科技有限公司,today,1528608468000,null,0,null,0,0,0,null,null,开发/测试/运维类,后端开发,0,APM线,妇儿中心,1号线_杨箕;1号线_体育西路;1号线_体育中心;3号线_珠江新城;3号线_体育西路;3号线_石牌桥;3号线(北延段)_体育西路;5号线_杨箕;5号线_五羊邨;5号线_珠江新城;APM线_大剧院;APM线_花城大道;APM线_妇儿中心;APM线_黄埔大道;APM线_天河南;APM线_体育中心南
225097,高级PHP开发工程师,3-5年,大专,全职,3531370,米嗦科技,"2018-06-10 13:26:55",0,南宁,6k-12k,1,"年终奖金,五险",天使轮,"移动互联网,数据服务",15-50人,"扁平管理,五险,年终奖金,年度旅游",8390850,青秀区,i/image2/M00/1C/0A/CgoB5loEHTOAQugXAAAPdPhhEh8945.jpg,"金融,MySQL","金融,MySQL","南湖,南湖",108.354018,22.812672,13:26发布,null,0,0,南宁米嗦网络科技有限公司,today,1528601409000,null,0,null,0,0,0,null,null,开发/测试/运维类,后端开发,0,1号线,南湖,1号线_南湖;1号线_麻村
130659,PHP,3-5年,大专,全职,3896559,舟恩信息,"2018-06-10 13:21:54",0,上海,10k-16k,0,"互联网,大型项目",不需要融资,移动互联网,150-500人,,9446293,徐汇区,i/image2/M00/29/2B/CgotOVomTSOAUlmvAACCdW7K2uI782.jpg,"MySQL,ThinkPHP",,null,121.462683,31.1871,13:21发布,null,66,1,上海舟恩信息技术有限公司,today,1528604656000,null,0,null,0,0,0,null,null,开发/测试/运维类,后端开发,0,7号线,龙华中路,4号线_大木桥路;4号线_东安路;7号线_龙华中路;7号线_东安路;12号线_龙华中路;12号线_大木桥路
243778,高级PHP工程师,5-10年,本科,全职,4402950,斐讯技术,"2018-06-10 13:18:41",0,上海,15k-30k,0,"五险一金,技能培训,免费班车,员工宿舍",不需要融资,"信息安全,硬件",2000人以上,"绩效奖金,定期体检,带薪年假,午餐补助",7193212,松江区,i/image/M00/5A/3D/CgpFT1mMAxyAF67DAAAe5kEDlFE013.jpg,"MySQL,redis",,null,121.160026,31.02424,13:18发布,null,0,0,四川斐讯信息技术有限公司,today,1528607910000,null,0,null,0,0,0,null,null,开发/测试/运维类,后端开发,0,null,null,null
23239,资深后台开发工程师（PHP）,5-10年,本科,全职,4656986,"DeNA China","2018-06-10 13:11:10",0,上海,20k-35k,1,"弹性工作,福利好",不需要融资,"移动互联网,游戏",150-500人,"五险一金,节日礼物,午餐补助,岗位晋升",4741951,杨浦区,image1/M00/00/2D/Cgo8PFTUXHmAQi0TAAAzXD5ReGE607.jpg,"Java,后端",,"大连,周家嘴路,长阳路",121.51142,31.26148,13:11发布,null,86,1,上海纵游网络技术有限公司,today,1528614640000,null,0,null,0,0,0,null,null,开发/测试/运维类,后端开发,0,8号线,大连路,4号线_临平路;4号线_大连路;4号线_杨树浦路;8号线_鞍山新村;12号线_提篮桥;12号线_大连路;12号线_江浦公园
1575,PHP,1-3年,本科,全职,1348018,百度,"2018-06-10 13:02:23",0,北京,14k-25k,1,牛人多，薪资高，福利好,不需要融资,"移动互联网,数据服务",2000人以上,"股票期权,弹性工作,五险一金,免费班车",1738848,null,i/image/M00/21/3E/CgpFT1kVdzeAJNbUAABJB7x9sm8374.png,,,null,116.30696302,40.04133359,13:02发布,"一年调薪4次,5险1金,6险1金",0,0,百度在线网络技术（北京）有限公司,today,1528606936000,null,0,null,0,0,0,null,null,技术,后端开发,0,昌平线,上地,13号线_上地;13号线_西二旗;昌平线_西二旗
163270,PHP高级开发工程师,5-10年,大专,全职,3183279,明源云链,"2018-06-10 12:57:09",0,深圳,15k-25k,1,"牛人多,成长快,六险一金,弹性上班",上市公司,"移动互联网,企业服务",2000人以上,"带薪年假,绩效奖金,定期体检,通讯津贴",285096,南山区,i/image/M00/1C/B7/CgpEMlkB7gGAUMO_AAAvHPy5OZY795.png,"教育,linux,Java,MySQL,后端","教育,linux,Java,MySQL,后端","白石洲,大冲,科技园",113.952429,22.537847,12:57发布,null,100,2,深圳市明源云采购电子商务有限公司,today,1528614480000,null,0,null,0,0,0,null,null,开发/测试/运维类,后端开发,0,2号线/蛇口线,深大,2号线/蛇口线_科苑;1号线/罗宝线_高新园;1号线/罗宝线_深大
6732,PHP高级开发工程师,3-5年,本科,全职,3615929,优梦,"2018-06-10 12:55:21",0,上海,20k-25k,1,"技术大牛,弹性工作,氛围轻松",B轮,"移动互联网,电子商务",50-150人,"节日礼物,技能培训,年度旅游,岗位晋升",1401154,杨浦区,i/image2/M00/4F/CA/CgoB5lsOGBaAXWsvAABn-7qzCJE187.jpg,"MySQL,后端",,"五角场,大学区,长海医院",121.51801,31.30932,12:55发布,null,100,1,上海优梦信息科技有限公司,today,1528608776000,null,0,null,0,0,0,null,null,开发/测试/运维类,后端开发,0,10号线(航中路),五角场,8号线_翔殷路;8号线_嫩江路;10号线(航中路)_三门路;10号线(航中路)_江湾体育场;10号线(航中路)_五角场;10号线(虹桥火车站)_三门路;10号线(虹桥火车站)_江湾体育场;10号线(虹桥火车站)_五角场
72106,php高级工程师,5-10年,本科,全职,4694987,蛋壳公寓,"2018-06-10 12:39:49",0,北京,30K-50K,1,"急聘,高薪,地铁附近,不打卡",B轮,O2O,2000人以上,"技能培训,年底双薪,股票期权,带薪年假",4946266,朝阳区,i/image/M00/6A/1E/CgpEMlmmolOAWTgtAAA3D7Z0p1A829.jpg,"总监,资深,Java,web",,"朝外,CBD",116.438432,39.922766,12:39发布,"试用期上公积金,地铁周边,6险1金",0,0,紫梧桐（北京）资产管理有限公司,today,1528627958000,null,0,null,0,0,0,null,null,开发/测试/运维类,后端开发,0,2号线,东四十条,2号线_东四十条;2号线_朝阳门;6号线_东大桥;6号线_朝阳门
65521,php开发工程师(东莞),1-3年,大专,全职,4279972,泽林信息,"2018-06-10 12:36:48",0,东莞,5k-8k,1,"五险一金,弹性工作,办公环境好,年底双薪",不需要融资,教育,500-2000人,"节日礼物,技能培训,绩效奖金,年度旅游",1503868,东莞市市辖区,i/image/M00/0C/EE/Cgp3O1bYDsOAQm_5AAEbfZ2PpKE601.jpg,"MySQL,ThinkPHP",,null,113.739182,23.025818,12:36发布,null,100,1,深圳市泽林信息咨询有限公司,today,1528632704000,null,0,null,0,0,0,null,null,开发/测试/运维类,后端开发,0,null,null,null
111175,"PHP 中级工程师",3-5年,本科,全职,1930541,ZingFront智线,"2018-06-10 12:27:12",0,武汉,10k-15k,0,带薪年假+福利多+办公环境好+氛围自由开放,A轮,"移动互联网,数据服务",50-150人,"绩效奖金,股票期权,带薪年假,弹性工作",3626897,洪山区,i/image/M00/34/9D/CgqKkVdWPSeAK6YCAAIELNuwlYo561.png,"Java,架构",,"光谷,关山",114.417855,30.500538,12:27发布,null,29,1,智线云科技（北京）有限公司,today,1528614965000,null,0,null,0,0,0,null,null,技术,后端开发,0,null,null,null
43055,"PHP 高级工程师",3-5年,本科,全职,334040,轻松筹,"2018-06-10 15:10:30",0,北京,18k-36k,1,五险一金(全额12%)、Mac办公、丰富团建,C轮,"移动互联网,金融",150-500人,"节日礼物,股票期权,扁平管理,领导好",811327,东城区,image1/M00/2A/C0/CgYXBlVtOd6ADiZhAABMN1FvJIM082.png,"Java,后端",,"和平里,雍和宫,北新桥",116.42454227,39.94877813,15:10发布,null,100,1,北京轻松筹网络科技有限公司,today,1528616387000,null,0,null,0,0,0,null,null,技术,后端开发,0,机场线,东直门,2号线_安定门;2号线_雍和宫;2号线_东直门;5号线_北新桥;5号线_雍和宫;5号线_和平里北街;13号线_柳芳;13号线_东直门;机场线_东直门
36162,"PHP 架构师 (MJ000648)",5-10年,本科,全职,4470656,作业盒子,"2018-06-10 14:21:59",0,北京,25k-50k,1,"大平台,技术牛,好前景,核心职位",C轮,"移动互联网,教育",500-2000人,"技能培训,年底双薪,节日礼物,年度旅游",10158439,朝阳区,i/image/M00/29/C7/Cgp3O1cwXzWAPpvjAAAYnaMmScM575.png,"专家,资深,高级,Java",,null,116.48117,39.996968,14:21发布,null,91,1,北京作业盒子科技有限公司,today,1528628848000,null,0,null,0,0,0,null,null,开发/测试/运维类,后端开发,0,15号线,望京东,14号线东段_望京;14号线东段_阜通;14号线东段_望京南;15号线_望京东;15号线_望京
65978,PHP高级开发工程师,3-5年,不限,全职,4255946,品阔,"2018-06-10 14:04:54",0,深圳,8K-16K,0,创新产品，五险一金，带薪年假，饭补,不需要融资,"移动互联网,教育",15-50人,"年底双薪,股票期权,带薪年假,绩效奖金",1626582,南山区,i/image2/M00/26/78/CgoB5loe7WOAK-dUAAAlpzAtziI349.png,,,蛇口,113.921,22.49849,14:04发布,null,77,1,深圳品阔信息技术有限公司,disabled,1528630203000,null,0,null,0,0,0,null,null,开发/测试/运维类,后端开发,0,2号线/蛇口线,水湾,2号线/蛇口线_水湾
163270,高级PHP工程师,3-5年,本科,全职,4199051,明源云链,"2018-06-10 12:57:09",0,深圳,16k-22k,1,"技术大牛,创新氛围,弹性工作,福利丰富",上市公司,"移动互联网,企业服务",2000人以上,"带薪年假,绩效奖金,定期体检,通讯津贴",285096,南山区,i/image/M00/1C/B7/CgpEMlkB7gGAUMO_AAAvHPy5OZY795.png,后端,,"白石洲,大冲,科技园",113.952429,22.537847,12:57发布,null,100,2,深圳市明源云采购电子商务有限公司,today,1528614480000,null,0,null,0,0,0,null,null,开发/测试/运维类,后端开发,0,2号线/蛇口线,深大,2号线/蛇口线_科苑;1号线/罗宝线_高新园;1号线/罗宝线_深大
6732,PHP开发工程师,1-3年,本科,全职,3578111,优梦,"2018-06-10 12:55:21",0,上海,10k-18k,1,"弹性工作制,周末双休,技术氛围浓,技术大牛",B轮,"移动互联网,电子商务",50-150人,"节日礼物,技能培训,年度旅游,岗位晋升",1401154,杨浦区,i/image2/M00/4F/CA/CgoB5lsOGBaAXWsvAABn-7qzCJE187.jpg,"Java,MySQL,后端",,"五角场,大学区,长海医院",121.51801,31.30932,12:55发布,null,100,1,上海优梦信息科技有限公司,today,1528608776000,null,0,null,0,0,0,null,null,开发/测试/运维类,后端开发,0,10号线(航中路),五角场,8号线_翔殷路;8号线_嫩江路;10号线(航中路)_三门路;10号线(航中路)_江湾体育场;10号线(航中路)_五角场;10号线(虹桥火车站)_三门路;10号线(虹桥火车站)_江湾体育场;10号线(虹桥火车站)_五角场
60763,PHP程序员,不限,大专,全职,3825723,网创科技,"2018-06-10 12:22:46",0,武汉,5k-8k,1,"周末双休,节假日休,员工旅游,员工五险",天使轮,"移动互联网,企业服务",50-150人,"技能培训,节日礼物,绩效奖金,岗位晋升",1528326,硚口区,i/image/M00/20/F9/CgpFT1kVIYiAY6RSAAAutfe7t2k168.png,"web,测试,app,性能测试,安全测试,jmeter",,null,114.251353,30.572166,12:22发布,null,7,1,武汉网创工场网络科技有限公司,today,1528619610000,null,0,null,0,0,0,null,null,开发/测试/运维类,测试,0,1号线,硚口路,1号线_崇仁路;1号线_硚口路;1号线_太平洋
222172,PHP工程师,1-3年,不限,全职,4688836,RulerTech然诺,"2018-06-10 12:15:36",0,武汉,7k-12k,0,"项目赚钱,福利好",天使轮,"移动互联网,企业服务",15-50人,"年底双薪,专项奖金,年终分红,交通补助",8211548,江汉区,i/image3/M00/45/44/Cgq2xlq9rZOAUPCxAAFdq15Mpnw991.png,"中级,Java,后端",,民权,114.287813,30.575956,12:15发布,"免费健身房,公司氛围好,5险1金",100,1,武汉然诺管理咨询有限公司,today,1528626222000,null,0,null,0,0,0,null,null,开发/测试/运维类,后端开发,0,2号线,友谊路,1号线_循礼门;1号线_友谊路;2号线_江汉路;2号线_循礼门;6号线_江汉路;6号线_六渡桥;6号线_汉正街
245823,PHP高级工程师,3-5年,本科,全职,4527711,神州瑞景,"2018-06-10 12:00:50",0,北京,20k-25k,1,"项目前景好,个人空间大,有大牛指导,工作稳定",不需要融资,"游戏,社交网络",15-50人,,3769036,朝阳区,i/image3/M00/38/39/Cgq2xlqp_HGATEcyAAAx0tb7lkw374.jpg,"社交,广告营销,Java,MySQL","社交,广告营销,Java,MySQL","亚运村,大屯,北苑",116.416192,40.00472,12:00发布,null,94,1,北京神州瑞景科技有限公司,today,1528619842000,null,0,null,0,0,0,null,null,开发/测试/运维类,后端开发,0,15号线,大屯路东,5号线_大屯路东;15号线_关庄;15号线_大屯路东;15号线_安立路
355625,php开发工程师,3-5年,本科,全职,4486545,NITI,"2018-06-10 11:21:43",0,西安,17K-34K,0,高薪&nbsp;高薪&nbsp;高薪,不需要融资,"移动互联网,游戏",500-2000人,"""""",10438458,新城区,i/image3/M00/4F/DA/Cgq2xlr0DfCAZr8UAABD2evGgso441.jpg,"资深,高级",,长乐中路,109.004766,34.268871,11:21发布,null,0,0,西安翩舞商贸有限公司,threeDays,1528506049000,null,0,null,0,0,0,null,null,开发/测试/运维类,后端开发,0,3号线,胡家庙,1号线_通化门;1号线_万寿路;3号线_胡家庙;3号线_通化门;3号线_长乐公园
128998,PHP开发工程师,3-5年,本科,全职,3418241,江苏亿科达,"2018-06-10 11:13:10",0,深圳,10k-20k,0,"环境好,旅游,福利丰厚",不需要融资,"移动互联网,金融",500-2000人,,4383654,福田区,i/image/M00/2A/A6/Cgp3O1cyziuAfM5AAAAe20ZOb-4754.png,"后端,ThinkPHP,weblogic",,"新洲,皇岗,购物公园",114.053855,22.535702,11:13发布,null,100,1,上海海万信息科技股份有限公司,disabled,1528626767000,null,0,null,0,0,0,null,null,开发/测试/运维类,后端开发,0,2号线/蛇口线,岗厦,2号线/蛇口线_莲花西;2号线/蛇口线_福田;2号线/蛇口线_市民中心;4号线/龙华线_会展中心;4号线/龙华线_市民中心;1号线/罗宝线_岗厦;1号线/罗宝线_会展中心;1号线/罗宝线_购物公园;3号线/龙岗线_石厦;3号线/龙岗线_购物公园;3号线/龙岗线_福田;11号线/机场线_福田;7号线_石厦
99910,PHP工程师,1-3年,大专,全职,1155260,博凡网络科技,"2018-06-10 10:59:11",0,广州,5k-10k,0,"弹性上班 双休 晋升机会多 氛围好",未融资,"移动互联网,企业服务",50-150人,"节日礼物,股票期权,年度旅游,岗位晋升",2540171,番禺区,image2/M00/0C/06/CgqLKVYbPnSAKGX6AAFF6ribAdY971.png?cc=0.17540585878305137,"信息安全,旅游,网站开发","信息安全,旅游,网站开发",沙头,113.362857,22.942582,10:59发布,null,0,0,长沙市所为信息科技有限公司,disabled,1528599565000,null,0,null,0,0,0,null,null,技术,后端开发,0,3号线,市桥,3号线_市桥
143749,PHP初级开发工程师,1-3年,大专,全职,2685894,焦点巴巴,"2018-06-10 10:58:32",0,北京,6k-8k,0,零食管够，不加班，结果导向,不需要融资,"移动互联网,金融",少于15人,"专项奖金,绩效奖金,交通补助,午餐补助",478,朝阳区,i/image/M00/55/18/CgqKkVfGPOeADds-AAALkVS_cek753.jpg,"MySQL,后端",,大望路,116.477481,39.892085,10:58发布,null,7,1,北京焦点巴巴科技有限公司,disabled,1528597851000,null,0,null,0,0,0,null,null,开发/测试/运维类,后端开发,0,10号线,九龙山,7号线_大郊亭;7号线_九龙山;10号线_双井;14号线东段_九龙山
296186,PHP高级开发工程师,3-5年,本科,全职,4597146,智慧工匠,"2018-06-10 10:56:41",0,武汉,7k-14k,0,php,未融资,移动互联网,50-150人,"""""",9469624,武昌区,i/image3/M00/40/93/Cgq2xlqzS1aAAlISAABycvKgte4930.png,"MySQL,ThinkPHP",,"中北路,东湖路,东亭",114.35229,30.565374,10:56发布,null,0,0,智慧工匠科技有限公司,today,1528598177000,null,0,null,0,0,0,null,null,开发/测试/运维类,后端开发,0,4号线,青鱼嘴,4号线_青鱼嘴;4号线_东亭
90570,PHP开发助理,1-3年,本科,全职,4183038,松茂科技,"2018-06-10 10:56:35",0,深圳,5k-8k,1,"十点上班,周末双休,下午茶零食,团建旅游",A轮,移动互联网,50-150人,"周末双休,年轻团队,朝十晚六,技能培训",8045463,南山区,i/image3/M00/52/51/Cgq2xlsGNoKAGUhVAACE0Be1y7U462.png,"支付,Java,MySQL","支付,Java,MySQL",null,113.91389,22.540677,10:56发布,null,100,1,深圳松茂科技有限公司,today,1528599382000,null,0,null,0,0,0,null,null,开发/测试/运维类,后端开发,0,1号线/罗宝线,大新,1号线/罗宝线_桃园;1号线/罗宝线_大新;1号线/罗宝线_鲤鱼门
148565,PHP工程师,应届毕业生,大专,全职,4702516,23life,"2018-06-10 10:56:21",0,洛阳,5k-10k,0,"扁平化管理,年轻团队,周末双休,五险一金",未融资,医疗健康,少于15人,,732939,涧西区,i/image/M00/5A/5C/CgqKkVfeJaiAP2fAAAAzkDld_U0403.jpg,"ThinkPHP,网站开发",,null,112.371194,34.642097,10:56发布,null,0,0,北京深度探索科技有限公司,today,1528633899000,null,0,null,0,0,0,null,null,开发/测试/运维类,后端开发,1,null,null,null
163270,PHP高级开发工程师,3-5年,本科,全职,4198905,明源云链,"2018-06-10 12:57:08",0,深圳,16k-22k,1,"技术导向,牛人多,氛围赞,扁平管理",上市公司,"移动互联网,企业服务",2000人以上,"带薪年假,绩效奖金,定期体检,通讯津贴",285096,南山区,i/image/M00/1C/B7/CgpEMlkB7gGAUMO_AAAvHPy5OZY795.png,"教育,后端开发,Yii,Java,后端","教育,后端开发,Yii,Java,后端","科技园,白石洲,大冲",113.952429,22.537847,12:57发布,null,100,2,深圳市明源云采购电子商务有限公司,today,1528614480000,null,0,null,0,0,0,null,null,开发/测试/运维类,后端开发,0,2号线/蛇口线,深大,2号线/蛇口线_科苑;1号线/罗宝线_高新园;1号线/罗宝线_深大
6732,PHP开发经理,3-5年,本科,全职,4646774,优梦,"2018-06-10 12:55:20",0,上海,25k-40k,1,"弹性工作制,五险一金,餐补",B轮,"移动互联网,电子商务",50-150人,"节日礼物,技能培训,年度旅游,岗位晋升",1401154,杨浦区,i/image2/M00/4F/CA/CgoB5lsOGBaAXWsvAABn-7qzCJE187.jpg,"移动互联网,资深,高级,Java,架构","移动互联网,资深,高级,Java,架构","五角场,大学区,长海医院",121.51801,31.30932,12:55发布,null,100,1,上海优梦信息科技有限公司,today,1528608776000,null,0,null,0,0,0,null,null,开发/测试/运维类,后端开发,0,10号线(航中路),五角场,8号线_翔殷路;8号线_嫩江路;10号线(航中路)_三门路;10号线(航中路)_江湾体育场;10号线(航中路)_五角场;10号线(虹桥火车站)_三门路;10号线(虹桥火车站)_江湾体育场;10号线(虹桥火车站)_五角场
245823,PHP主管,3-5年,本科,全职,4533828,神州瑞景,"2018-06-10 12:00:48",0,北京,20k-30k,1,"项目前景好,个人空间大,有大牛指导,工作稳定",不需要融资,"游戏,社交网络",15-50人,,3769036,朝阳区,i/image3/M00/38/39/Cgq2xlqp_HGATEcyAAAx0tb7lkw374.jpg,"广告营销,高级,后端开发,Java,MySQL","广告营销,高级,后端开发,Java,MySQL","亚运村,大屯,北苑",116.416192,40.00472,12:00发布,null,94,1,北京神州瑞景科技有限公司,today,1528619842000,null,0,null,0,0,0,null,null,开发/测试/运维类,后端开发,0,15号线,大屯路东,5号线_大屯路东;15号线_关庄;15号线_大屯路东;15号线_安立路
90570,PHP开发工程师,3-5年,本科,全职,4689723,松茂科技,"2018-06-10 10:56:35",0,深圳,15k-20k,1,"十点上班,周末双休,下午茶零食,团建旅游",A轮,移动互联网,50-150人,"周末双休,年轻团队,朝十晚六,技能培训",8045463,南山区,i/image3/M00/52/51/Cgq2xlsGNoKAGUhVAACE0Be1y7U462.png,"支付,初级,后端,Java,MySQL","支付,初级,后端,Java,MySQL","前海,南头",113.91389,22.540677,10:56发布,null,100,1,深圳松茂科技有限公司,today,1528599382000,null,0,null,0,0,0,null,null,开发/测试/运维类,后端开发,0,1号线/罗宝线,大新,1号线/罗宝线_桃园;1号线/罗宝线_大新;1号线/罗宝线_鲤鱼门
34573,"资深 PHP 开发工程师",3-5年,本科,全职,3659082,省钱快报,"2018-06-10 10:54:20",0,北京,20k-40k,1,"免费 3 餐、项目奖金、健身房、午休",C轮,"移动互联网,电子商务",50-150人,"技能培训,专项奖金,带薪年假,绩效奖金",8626311,东城区,i/image2/M00/0E/80/CgotOVnld_SAEamPAAWRNUQDAiA976.png,"电商,高并发,架构","电商,高并发,架构","雍和宫,安定门,交道口",116.41189961,39.94779526,10:54发布,null,0,0,北京九州云动科技有限公司,threeDays,1528454148000,null,0,null,0,0,0,null,null,开发/测试/运维类,后端开发,0,5号线,安定门,2号线_安定门;2号线_雍和宫;5号线_北新桥;5号线_雍和宫;5号线_和平里北街
126294,php,应届毕业生,大专,全职,3972516,上海驭网,"2018-06-10 10:46:05",0,上海,10k-15k,1,"弹性工作制,五天半小时,公司有福利,公司有旅游",A轮,移动互联网,15-50人,"绩效奖金,带薪年假,弹性工作,节日礼物",4661950,闵行区,i/image/M00/23/EB/CgqKkVcYqLiANM8_AAEfwK4WEqQ199.jpg,"支付,教育,Java,后端","支付,教育,Java,后端","莘庄,莘庄,莘庄",121.366631,31.125025,10:46发布,null,11,1,上海驭网信息技术有限公司,today,1528598749000,null,0,null,0,0,0,null,null,开发/测试/运维类,后端开发,1,null,null,null
369878,PHP,不限,不限,全职,4693565,郑州蓝之海集团,"2018-06-10 10:39:08",0,郑州,5k-8k,0,"五险一金,旅游多多,美女多多,发展空间大",A轮,"不限 移动互联网",2000人以上,"""""",10638484,二七区,i/image2/M00/47/77/CgoB5lrZZdGADNExAAA6TdSmY1I086.png,"中级,初级,实习,架构师,C/C++",,"大学路,航海中路,淮河路",113.640179,34.72393,10:39发布,null,0,0,郑州蓝之海软件科技有限公司,today,1528628824000,null,0,null,0,0,0,null,null,开发/测试/运维类,后端开发,0,null,null,null
129227,高级PHP工程师,3-5年,大专,全职,4514551,3K游戏,"2018-06-10 10:24:23",0,广州,10k-20k,0,"发展空间,技术氛围好,女神妹纸多,福利好",不需要融资,"游戏,移动互联网",150-500人,"绩效奖金,免费包餐,海外旅游,环境舒适",735547,天河区,i/image/M00/68/C8/CgpFT1mtAI-AO83WABd6ohTaqcM991.png,Java,,"棠下,东圃,车陂",113.380976,23.124854,10:24发布,null,0,0,上海游民网络科技有限公司,today,1528597205000,null,0,null,0,0,0,null,null,开发/测试/运维类,后端开发,0,4号线,车陂南,4号线_车陂;4号线_车陂南;5号线_科韵路;5号线_车陂南
302532,PHP开发工程师,3-5年,本科,全职,3950527,集客网络,"2018-06-10 10:23:09",0,广州,10k-15k,0,"扁平管理,带薪年假,年终分红,氛围融洽",不需要融资,移动互联网,50-150人,"年底双薪,股票期权,年终分红,带薪年假",9488498,白云区,i/image2/M00/2E/6F/CgoB5lo07Y2AHPRCAAAx2EMKp64672.png,"高级,MySQL,后端",,null,0.0,0.0,10:23发布,null,28,1,广州集客网络科技有限公司,today,1528598495000,null,0,null,0,0,0,null,null,开发/测试/运维类,后端开发,0,null,null,null
178538,php开发工程师,1-3年,大专,全职,2899401,吉祥天宝设计公司,"2018-06-10 10:17:46",0,广州,8k-15k,0,牛人多,不需要融资,移动互联网,15-50人,,7338968,番禺区,i/image/M00/B9/FF/Cgp3O1jEoFWAZOvHAACDK3U_xtY303.jpg,"支付,软件开发,MySQL,后端","支付,软件开发,MySQL,后端",null,113.396349,23.009797,10:17发布,null,0,0,四会市吉祥天宝设计有限公司,disabled,1528597194000,null,0,null,0,0,0,null,null,开发/测试/运维类,软件开发,0,7号线,板桥,7号线_板桥
273524,PHP开发工程师,3-5年,本科,全职,4010360,云才,"2018-06-10 10:11:58",0,合肥,8k-15k,0,"五险一金,年终奖,大平台,股权分红",未融资,"移动互联网,企业服务",50-150人,"节日礼物,年度旅游,管理规范,领导好",5005642,蜀山区,i/image2/M00/24/B4/CgoB5loblZ2AYFrMAAAsD8Itl40475.jpg,"js,后端",,黄山路,117.222346,31.842372,10:11发布,null,50,0,安徽云才信息技术有限公司,today,1528596711000,null,0,null,0,0,0,null,null,开发/测试/运维类,后端开发,0,null,null,null
5580,PHP敏捷开发leader（产品事业部合伙人）,5-10年,本科,全职,4479232,明源云,"2018-06-10 10:10:36",0,深圳,20k-30k,1,"合伙人,有挑战,产品打磨,扁平管理",上市公司,"移动互联网,企业服务",2000人以上,"高额六险一金,年底双薪,绩效奖金,N项经费",1971138,南山区,i/image/M00/31/88/CgqKkVdLrpuAdDlTAAASSPJoU3U402.jpg,团队管理,,null,0.0,0.0,10:10发布,null,100,1,深圳市明源云客电子商务有限公司,today,1528630645000,null,0,null,0,0,0,null,null,开发/测试/运维类,管理岗,0,null,null,null
35849,PHP开发工程师,不限,不限,全职,501604,微通,"2018-06-10 10:09:50",0,东莞,8k-16k,1,高薪，期权，氛围好、双休*7h、市中心,A轮,"移动互联网,电子商务",50-150人,"股票期权,绩效奖金,周末双休,岗位晋升",144161,东莞市市辖区,image1/M00/00/55/CgYXBlTUXSCATNj0AADDpkAmL8s644.png,,,null,113.75363399,23.00441232,10:09发布,null,0,0,东莞市微通文化传播有限公司,today,1528596574000,null,0,null,0,0,0,null,null,技术,后端开发,0,2号线,西平,2号线_鸿福路;2号线_西平
216128,PHP开发工程师,1-3年,本科,全职,3250054,青岛巴别塔网络科技有限公司,"2018-06-10 10:08:03",0,青岛,7k-14k,0,"弹性工作,双休",不需要融资,"电子商务,金融",15-50人,"带薪年假,股票期权",4993066,市北区,i/image3/M00/22/C4/CgpOIFqVCEeAJcUEAAAK7JrbuI4644.png,"金融,云计算,中级,Java,MySQL","金融,云计算,中级,Java,MySQL",null,117.020359,36.66853,10:08发布,null,0,0,青岛巴别塔网络科技有限公司,disabled,1528628843000,null,0,null,0,0,0,null,null,开发/测试/运维类,后端开发,0,null,null,null
54152,PHP开发工程师,1-3年,不限,全职,3781614,里德软件,"2018-06-10 09:56:25",0,上海,11K-15K,1,提升空间大,不需要融资,"移动互联网,企业服务",少于15人,"技能培训,年底双薪,专项奖金,岗位晋升",8930275,静安区,image1/M00/0F/96/Cgo8PFT9U32AeoOrAABnXiB-E5Q036.png,"软件开发,Java,web",,null,121.437242,31.230918,09:56发布,null,50,1,上海里德软件科技有限公司,today,1528595746000,null,0,null,0,0,0,null,null,开发/测试/运维类,软件开发,0,11号线(花桥),武宁路,2号线_静安寺;2号线_江苏路;7号线_静安寺;7号线_昌平路;7号线_长寿路;11号线(嘉定北)_江苏路;11号线(嘉定北)_隆德路;11号线(花桥)_江苏路;11号线(花桥)_隆德路;13号线_隆德路;13号线_武宁路;13号线_长寿路
163270,PHP架构师,5-10年,本科,全职,4199000,明源云链,"2018-06-10 12:57:08",0,深圳,18k-30k,1,"牛人多,氛围赞",上市公司,"移动互联网,企业服务",2000人以上,"带薪年假,绩效奖金,定期体检,通讯津贴",285096,南山区,i/image/M00/1C/B7/CgpEMlkB7gGAUMO_AAAvHPy5OZY795.png,"教育,后端开发,Java","教育,后端开发,Java","科技园,白石洲,大冲",113.952429,22.537847,12:57发布,null,100,2,深圳市明源云采购电子商务有限公司,today,1528614480000,null,0,null,0,0,0,null,null,开发/测试/运维类,后端开发,0,2号线/蛇口线,深大,2号线/蛇口线_科苑;1号线/罗宝线_高新园;1号线/罗宝线_深大
129227,PHP开发,1-3年,大专,全职,4218746,3K游戏,"2018-06-10 10:24:01",0,广州,8k-16k,0,"双休,海外旅游,加班补贴,包餐",不需要融资,"游戏,移动互联网",150-500人,"绩效奖金,免费包餐,海外旅游,环境舒适",735547,天河区,i/image/M00/68/C8/CgpFT1mtAI-AO83WABd6ohTaqcM991.png,"高级,中级,后端开发,后端,网站开发",,"棠下,东圃,车陂",113.380976,23.124854,10:24发布,null,0,0,上海游民网络科技有限公司,today,1528597205000,null,0,null,0,0,0,null,null,开发/测试/运维类,后端开发,0,4号线,车陂南,4号线_车陂;4号线_车陂南;5号线_科韵路;5号线_车陂南
5580,PHP高级开发工程师,5-10年,大专,全职,4619045,明源云,"2018-06-10 10:10:36",0,深圳,15k-25k,1,"成长快,牛人多,六险一金,弹性上班",上市公司,"移动互联网,企业服务",2000人以上,"高额六险一金,年底双薪,绩效奖金,N项经费",1971138,南山区,i/image/M00/31/88/CgqKkVdLrpuAdDlTAAASSPJoU3U402.jpg,"教育,Java,后端","教育,Java,后端","科技园,白石洲,大冲",113.952429,22.537847,10:10发布,null,100,1,深圳市明源云客电子商务有限公司,today,1528630645000,null,0,null,0,0,0,null,null,开发/测试/运维类,后端开发,0,2号线/蛇口线,深大,2号线/蛇口线_科苑;1号线/罗宝线_高新园;1号线/罗宝线_深大
18909,PHP开发工程师,1-3年,大专,全职,4304251,新工厂,"2018-06-10 09:55:52",0,广州,5K-10K,1,与百万用户,不需要融资,移动互联网,少于15人,"技能培训,年度旅游,岗位晋升,带薪年假",215635,天河区,i/image/M00/15/22/CgqKkVbqxhKABwytAAFCeHcQ_U4558.png,"后端开发,服务器端,Python,MySQL,后端",,null,113.344228,23.141951,09:55发布,null,0,0,广州虎将网络科技有限公司,today,1528595718000,null,0,null,0,0,0,null,null,开发/测试/运维类,后端开发,0,3号线,华师,3号线_岗顶;3号线_华师;3号线_五山
173216,高级PHP开发工程师,3-5年,大专,全职,3660761,大蓝网络,"2018-06-10 09:53:07",0,广州,12k-20k,1,"六险一金,双休包餐,团队实力强,发展空间大",不需要融资,"游戏,移动互联网",50-150人,"年底双薪,绩效奖金,带薪年假,扁平管理",7148341,海珠区,i/image3/M00/12/AF/CgpOIFpu7ROAU0UaAAAvwWv_H_w082.jpg,"游戏,MySQL,后端,laravel","游戏,MySQL,后端,laravel",琶洲,113.3577,23.09762,09:53发布,null,100,1,广州大蓝网络科技有限公司,disabled,1528595481000,null,0,null,0,0,0,null,null,开发/测试/运维类,后端开发,0,8号线,琶洲,8号线_新港东;8号线_琶洲
89287,PHP,1-3年,大专,全职,2563312,河南省往来电子商务有限公司,"2018-06-10 09:51:55",0,郑州,8K-12K,1,双休、加班可调休、7小时工作制,未融资,"移动互联网,电子商务",15-50人,"股票期权,带薪年假,年度旅游,节日礼物",3396893,经开区,image1/M00/42/9C/CgYXBlXMOTWADMcoAAD420NzII4065.jpg?cc=0.6552082392709078,,,null,113.743089,34.72195,09:51发布,null,0,0,河南省往来电子商务有限公司,today,1528595617000,null,0,null,0,0,0,null,null,技术,后端开发,0,null,null,null
152022,PHP开发工程师,1-3年,不限,全职,4518863,网豆科技,"2018-06-10 09:51:29",0,北京,8k-15k,1,"期权,项目奖,上升空间大",未融资,"企业服务,移动互联网",15-50人,"弹性工作,股权激励,专项奖金,年终分红",6270877,朝阳区,i/image/M00/63/18/CgqKkVgAXgeAPOcAAABsukVHCOE771.jpg,"高级,中级,linux,Java",,null,116.620962,39.926172,09:51发布,null,47,1,北京网豆科技有限公司,today,1528623977000,null,0,null,0,0,0,null,null,开发/测试/运维类,后端开发,0,6号线,草房,6号线_草房
149664,php开发工程师,3-5年,本科,全职,4159785,天创,"2018-06-10 09:51:15",0,长沙,15k-20k,1,"五险一金,年底双薪",不需要融资,"移动互联网,社交网络",50-150人,"年底双薪,带薪年假,美女多,五险一金",6072735,天心区,i/image/M00/5E/E5/CgqKkVftOVaAbDMqAAAUfPVnR0Q060.jpg,"后端开发,MySQL,web",,"坡子街,解放西路,湘江中路",112.969127,28.190642,09:51发布,null,100,2,长沙天创文化传播有限公司,today,1528634398000,null,0,null,0,0,0,null,null,开发/测试/运维类,后端开发,0,2号线,南门口,1号线_五一广场;1号线_黄兴广场;1号线_南门口;2号线_橘子洲;2号线_湘江中路;2号线_五一广场
218543,PHP开发工程师,1-3年,大专,全职,4667206,汇梦科技,"2018-06-10 09:47:46",0,成都,6k-10k,1,"年终分红,绩效奖金,带薪年假,五险一金",未融资,"金融,移动互联网",15-50人,"创业无限可能,青春活力激情,自主研发产品,团队小而美",8272326,高新区,i/image/M00/3A/16/CgpFT1lOEoaAePMcAACeOUgWdBw810.jpg,"支付,大数据,MySQL,后端","支付,大数据,MySQL,后端",null,104.066381,30.54521,09:47发布,null,86,2,成都汇梦邦科技有限公司,disabled,1528623190000,null,0,null,0,0,0,null,null,开发/测试/运维类,后端开发,0,1号线,世纪城,1号线_天府五街;1号线_天府三街;1号线_世纪城
291985,高级PHP开发工程师,3-5年,不限,全职,3869831,邦德信息,"2018-06-10 09:45:43",0,福州,10k-15k,0,钱途光明,未融资,"移动互联网,电子商务",少于15人,"年终分红,弹性工作,扁平管理,岗位晋升",9116424,仓山区,i/image2/M00/2C/0B/CgotOVouPFuALlGsAAchx61FSPg151.jpg,"信息安全,后端","信息安全,后端","金山工业,建新,金山",119.253687,26.066743,09:45发布,null,0,0,福州邦德信息技术有限公司,today,1528633271000,null,0,null,0,0,0,null,null,开发/测试/运维类,后端开发,0,null,null,null
24984,PHP/Golang开发工程师,1-3年,本科,全职,4175882,医联,"2018-06-10 09:44:01",0,成都,8k-16k,1,"平台好,团队好,福利好,期权激励",B轮,"社交网络,医疗健康",500-2000人,"专项奖金,绩效奖金,岗位晋升,扁平管理",6689546,高新区,i/image/M00/05/E2/Cgp3O1bL1d-AZdsWAAAROo8ljn4602.png,"MySQL,后端,redis",,null,104.071436,30.545068,09:44发布,null,95,1,成都医云科技有限公司,disabled,1528608831000,null,0,null,0,0,0,null,null,开发/测试/运维类,后端开发,0,1号线,世纪城,1号线_天府五街;1号线_天府三街;1号线_世纪城
341494,高级php开发工程师（运营开发模块）,5-10年,本科,全职,4492551,高灯科技,"2018-06-10 09:39:36",0,广州,15k-25k,0,"腾讯系,优质项目,扁平化管理,技术氛围好",不需要融资,"移动互联网 电子商务",150-500人,"交通补助,定期体检,双休,地铁口",10223682,海珠区,i/image2/M00/52/23/CgoB5lsVDL-ABPkzAAAOIYvg_ag922.png,"MySQL,后端",,null,113.323844,23.096432,09:39发布,null,5,1,海南高灯科技有限公司,today,1528605086000,null,0,null,0,0,0,null,null,开发/测试/运维类,后端开发,0,8号线,客村,3号线_客村;3号线_广州塔;8号线_客村;8号线_赤岗
153033,中高级PHP开发工程师,3-5年,本科,全职,4189932,英思奇,"2018-06-10 09:29:43",0,深圳,20k-35k,0,"包吃,包住,带薪假期,税后薪资",未融资,"移动互联网,电子商务",50-150人,"年底双薪,股票期权,包吃\包住",6343824,宝安区,i/image/M00/34/C2/CgpFT1lDOCCAM00nAAAZ3jK1imM840.png,"web开发,MySQL,后端,移动端开发",,"新安,翻身路,西乡",113.88402,22.555259,09:29发布,null,50,1,深圳市英思奇信息咨询有限公司,today,1528610469000,null,0,null,0,0,0,null,null,开发/测试/运维类,后端开发,0,5号线/环中线,宝安中心,1号线/罗宝线_新安;1号线/罗宝线_宝安中心;1号线/罗宝线_宝体;5号线/环中线_临海;5号线/环中线_宝华;5号线/环中线_宝安中心;5号线/环中线_翻身;11号线/机场线_宝安
22069,PHP开发工程师,不限,大专,全职,4676182,骆驼服饰,"2018-06-10 09:26:25",0,广州,8k-16k,0,"晋升空间,餐补,社保",未融资,电子商务,2000人以上,"绩效奖金,带薪年假,节日礼物,年度旅游",8027894,白云区,image1/M00/00/29/Cgo8PFTUXGqAfJXHAADP2fEqLS0921.jpg,"电商,MySQL,mvc","电商,MySQL,mvc","三元里,同德,黄石",113.242946,23.192017,09:26发布,null,50,1,广东骆驼服饰有限公司,disabled,1528616859000,null,0,null,0,0,0,null,null,开发/测试/运维类,后端开发,0,null,null,null
10539,PHP高级开发工程师（金融方向）,3-5年,本科,全职,3672460,安心记加班,"2018-06-10 09:25:20",0,上海,15K-25K,1,"弹性时间,绩效奖金,年终奖金,大牛云集",A轮,移动互联网,150-500人,"股票期权,扁平管理,帅哥多,节日礼物",269658,徐汇区,image1/M00/00/15/CgYXBlTUWEKACg74AAB3ZY8NhUQ704.png,"金融,Java,MySQL,redis,python","金融,Java,MySQL,redis,python",null,null,null,09:25发布,null,90,2,上海慧贤网络科技有限公司,today,1528621678000,null,0,null,0,0,0,null,null,开发/测试/运维类,后端开发,0,null,null,null
5580,PHP开发工程师,3-5年,本科,全职,4170689,明源云,"2018-06-10 10:10:36",0,深圳,12k-22k,1,"上市公司,平台大,发展快,福利多",上市公司,"移动互联网,企业服务",2000人以上,"高额六险一金,年底双薪,绩效奖金,N项经费",1971138,南山区,i/image/M00/31/88/CgqKkVdLrpuAdDlTAAASSPJoU3U402.jpg,"教育,Yii,laravel,Java,后端","教育,Yii,laravel,Java,后端","科技园,深圳湾,南山医院",113.95257,22.5379,10:10发布,null,100,1,深圳市明源云客电子商务有限公司,today,1528630645000,null,0,null,0,0,0,null,null,开发/测试/运维类,后端开发,0,2号线/蛇口线,深大,2号线/蛇口线_科苑;1号线/罗宝线_白石洲;1号线/罗宝线_高新园;1号线/罗宝线_深大
173216,PHP开发工程师,不限,大专,全职,3459754,大蓝网络,"2018-06-10 09:53:07",0,广州,6k-12k,1,"技术大牛多,发展空间大,团队氛围好,双休包餐",不需要融资,"游戏,移动互联网",50-150人,"年底双薪,绩效奖金,带薪年假,扁平管理",7148341,海珠区,i/image3/M00/12/AF/CgpOIFpu7ROAU0UaAAAvwWv_H_w082.jpg,"游戏,MySQL,数据库,后端","游戏,MySQL,数据库,后端",琶洲,113.3577,23.09762,09:53发布,null,100,1,广州大蓝网络科技有限公司,disabled,1528595481000,null,0,null,0,0,0,null,null,开发/测试/运维类,后端开发,0,8号线,琶洲,8号线_新港东;8号线_琶洲
152022,PHP开发实习生,不限,不限,全职,2901534,网豆科技,"2018-06-10 09:51:25",0,北京,2k-4k,1,"区块链技术,时间灵活,学知识快,项目奖",未融资,"企业服务,移动互联网",15-50人,"弹性工作,股权激励,专项奖金,年终分红",6270877,朝阳区,i/image/M00/63/18/CgqKkVgAXgeAPOcAAABsukVHCOE771.jpg,"初级,后端开发,后端,ThinkPHP",,null,116.620962,39.926172,09:51发布,null,47,1,北京网豆科技有限公司,today,1528623977000,null,0,null,0,0,0,null,null,开发/测试/运维类,后端开发,0,6号线,草房,6号线_草房
149664,PHP高级工程师,3-5年,本科,全职,2583320,天创,"2018-06-10 09:51:14",0,长沙,15k-25k,1,如能胜任技术总监一职，月薪可达25K,不需要融资,"移动互联网,社交网络",50-150人,"年底双薪,带薪年假,美女多,五险一金",6072735,天心区,i/image/M00/5E/E5/CgqKkVftOVaAbDMqAAAUfPVnR0Q060.jpg,"后端,ThinkPHP",,"湘江中路,解放西路",112.969513,28.190604,09:51发布,null,100,2,长沙天创文化传播有限公司,today,1528634398000,null,0,null,0,0,0,null,null,开发/测试/运维类,后端开发,0,2号线,南门口,1号线_五一广场;1号线_黄兴广场;1号线_南门口;2号线_橘子洲;2号线_湘江中路;2号线_五一广场
24984,PHP开发工程师,1-3年,本科,全职,4102634,医联,"2018-06-10 09:43:57",0,成都,10k-20k,1,"晋升空间大,团队氛围好,定期团建,期权激励",B轮,"社交网络,医疗健康",500-2000人,"专项奖金,绩效奖金,岗位晋升,扁平管理",6689546,高新区,i/image/M00/05/E2/Cgp3O1bL1d-AZdsWAAAROo8ljn4602.png,"linux,laravel,golang",,null,104.071436,30.545068,09:43发布,null,95,1,成都医云科技有限公司,disabled,1528608831000,null,0,null,0,0,0,null,null,开发/测试/运维类,后端开发,0,1号线,世纪城,1号线_天府五街;1号线_天府三街;1号线_世纪城
341494,PHP高级开发工程师,5-10年,本科,全职,4277941,高灯科技,"2018-06-10 09:39:35",0,广州,15k-25k,0,"大咖指导,专业培训,团队氛围好,优质项目",不需要融资,"移动互联网 电子商务",150-500人,"交通补助,定期体检,双休,地铁口",10223682,海珠区,i/image2/M00/52/23/CgoB5lsVDL-ABPkzAAAOIYvg_ag922.png,"后端开发,Yii,MySQL,后端",,null,113.323844,23.096432,09:39发布,null,5,1,海南高灯科技有限公司,today,1528605086000,null,0,null,0,0,0,null,null,开发/测试/运维类,后端开发,0,8号线,客村,3号线_客村;3号线_广州塔;8号线_客村;8号线_赤岗
10539,PHP,1-3年,本科,全职,3657327,安心记加班,"2018-06-10 09:25:20",0,上海,12k-24k,1,"弹性时间,地铁周边,年终奖金,大牛云集",A轮,移动互联网,150-500人,"股票期权,扁平管理,帅哥多,节日礼物",269658,徐汇区,image1/M00/00/15/CgYXBlTUWEKACg74AAB3ZY8NhUQ704.png,"MySQL,redis",,"徐家汇,徐家汇,肇嘉浜路,肇嘉浜路,肇嘉浜路,肇嘉浜路",121.440641,31.193908,09:25发布,null,90,2,上海慧贤网络科技有限公司,today,1528621678000,null,0,null,0,0,0,null,null,开发/测试/运维类,后端开发,0,11号线(花桥),上海体育场,1号线_上海体育馆;1号线_徐家汇;1号线_衡山路;4号线_东安路;4号线_上海体育场;4号线_上海体育馆;7号线_东安路;7号线_肇嘉浜路;9号线_肇嘉浜路;9号线_徐家汇;10号线(航中路)_交通大学;10号线(虹桥火车站)_交通大学;11号线(嘉定北)_徐家汇;11号线(嘉定北)_交通大学;11号线(花桥)_徐家汇;11号线(花桥)_交通大学
66619,高级PHP开发工程师,1-3年,大专,全职,3840523,智悅网络,"2018-06-10 09:14:03",0,广州,10k-18k,1,"五险一金,带薪年假,节日福利,加班补贴",A轮,"移动互联网,电子商务",50-150人,"五险一金,年底双薪,专项奖金,带薪年假",1637156,天河区,i/image/M00/5E/61/CgqKkVfrNDSAXSvqAAECvYqe3hY894.jpg,"中级,后端开发,MySQL,后端",,"棠下,天河公园,天园",113.372277,23.12281,09:14发布,null,53,1,广州智悦网络科技有限公司,today,1528614107000,null,0,null,0,0,0,null,null,开发/测试/运维类,后端开发,0,5号线,科韵路,5号线_员村;5号线_科韵路
233304,PHP软件开发学徒,1年以下,大专,全职,4080558,燃网络,"2018-06-10 09:11:16",0,无锡,3k-5k,0,"双休,定期体检,工作氛围好,年底双薪",未融资,"移动互联网,游戏",少于15人,,9452943,崇安区,i/image/M00/51/49/CgpEMlly8hSAbcA2AABQfzNbLIM888.png,Java,,null,120.307543,31.571228,09:11发布,null,38,1,南京网燃网络科技有限公司,today,1528614377000,null,0,null,0,0,0,null,null,开发/测试/运维类,后端开发,0,2号线,三阳广场,1号线_胜利门;1号线_三阳广场;1号线_南禅寺;1号线_谈渡桥;2号线_东林广场;2号线_三阳广场
226452,PHP开发工程师,1-3年,本科,全职,4642795,银迅通支付,"2018-06-10 09:10:15",0,广州,7k-13k,1,"福利好,环境好,双休,活动多",不需要融资,"移动互联网,电子商务",15-50人,"带薪年假,绩效奖金,交通补助,定期体检",8409526,天河区,i/image/M00/44/CA/CgpFT1li6ZyANZzGAACU7wDWNvg574.jpg,"高级,后端开发,后端",,null,113.372659,23.122723,09:10发布,null,0,0,广州银迅通网络支付技术有限公司,today,1528592747000,null,0,null,0,0,0,null,null,开发/测试/运维类,后端开发,0,5号线,科韵路,5号线_员村;5号线_科韵路
22450,高级PHP工程师,3-5年,本科,全职,4577255,MAKA,"2018-06-10 08:55:58",0,广州,12k-23k,1,"六险一金,周末双休,年终奖,带薪年假",A轮,"企业服务,移动互联网",50-150人,"牛人云集,年底双薪,技能培训,定期体检",259101,海珠区,i/image/M00/82/A0/CgpFT1q-H9OAUMImAAA7qY3KuvU802.jpg,"旅游,移动互联网,医疗健康,Java","旅游,移动互联网,医疗健康,Java","新港,赤岗,客村",113.32377,23.09642,08:55发布,null,100,1,深圳格莱珉文化传播有限公司广州分公司,today,1528611490000,null,0,null,0,0,0,null,null,开发/测试/运维类,后端开发,0,8号线,客村,3号线_客村;3号线_广州塔;8号线_客村;8号线_赤岗
54915,PHP开发工程师,1-3年,本科,全职,2209022,传影科技,"2018-06-10 08:43:00",0,合肥,7k-14k,1,双休、年底带薪休假、每月活动、定期体检,未融资,文化娱乐,50-150人,"年底双薪,专项奖金,带薪年假,年度旅游",1368392,包河区,i/image2/M00/0F/96/CgoB5lnnFVeADhKtAAAtLrNy3MA176.png,"旅游,电商,文化娱乐","旅游,电商,文化娱乐","太湖路,马鞍山路,望江路",117.302572,31.831652,08:43发布,null,35,1,上海传影科技有限公司,today,1528614605000,null,0,null,0,0,0,null,null,技术,后端开发,0,1号线,朱岗,1号线_秋浦河路;1号线_朱岗
160431,php中高级开发,应届毕业生,大专,全职,4663950,新环境房屋,"2018-06-10 08:39:09",0,长沙,8k-13k,0,"开发环境好,大小休,主管,五险",未融资,电子商务、O2O,2000人以上,"绩效奖金,通讯津贴,年终分红,交通补助",6989842,雨花区,i/image3/M00/48/2A/Cgq2xlrLIFWAJQP5AAAnCehDT2M990.png,"信息安全,中级,后端开发,MySQL","信息安全,中级,后端开发,MySQL",null,112.993,28.16882,08:39发布,null,0,0,湖南新环境房地产经纪连锁有限公司,disabled,1528617815000,null,0,null,0,0,0,null,null,开发/测试/运维类,后端开发,1,1号线,黄土岭,1号线_侯家塘;1号线_南湖路;1号线_黄土岭
332569,php开发一名,应届毕业生,大专,全职,4632173,新环境房屋网,"2018-06-10 08:37:49",0,长沙,8k-13k,0,"准上市公司,福利待遇好,晋升空间大,大小休",不需要融资,"其他 移动互联网",2000人以上,"""""",9834785,雨花区,i/image3/M00/27/80/CgpOIFqaHLWAdEGWAABm1UkrT9c828.png,"信息安全,中级,后端,MySQL","信息安全,中级,后端,MySQL",劳动西路,0.0,0.0,08:37发布,null,0,0,湖南新环境网络科技有限公司,threeDays,1528468465000,null,0,null,0,0,0,null,null,开发/测试/运维类,后端开发,1,null,null,null
145814,PHP,1-3年,不限,全职,2435334,来客码,"2018-06-10 06:14:09",0,重庆,4K-8K,1,有发展前景,不需要融资,"移动互联网,电子商务",15-50人,"年底双薪,专项奖金,绩效奖金,带薪年假",5867561,渝北区,i/image/M00/53/BE/CgqKkVe_7OeAGkgvAAAj88eKDI8751.png,,,龙头寺,106.55364,29.60299,06:14发布,null,0,0,重庆码码电子技术开发有限公司,disabled,1528628112000,null,0,null,0,0,0,null,null,技术,后端开发,0,3号线,唐家院子,3号线_唐家院子;3号线_狮子坪;3号线_重庆北站南广场
5580,高级PHP工程师,3-5年,本科,全职,4119757,明源云,"2018-06-10 10:10:36",0,深圳,16k-25k,1,技术大牛，创新氛围，弹性工作，福利丰富,上市公司,"移动互联网,企业服务",2000人以上,"高额六险一金,年底双薪,绩效奖金,N项经费",1971138,南山区,i/image/M00/31/88/CgqKkVdLrpuAdDlTAAASSPJoU3U402.jpg,"MySQL,后端,OOP",,"科技园,深圳湾,南山医院",113.95257048,22.53789999,10:10发布,null,100,1,深圳市明源云客电子商务有限公司,today,1528630645000,null,0,null,0,0,0,null,null,开发/测试/运维类,后端开发,0,2号线/蛇口线,深大,2号线/蛇口线_科苑;1号线/罗宝线_白石洲;1号线/罗宝线_高新园;1号线/罗宝线_深大
24984,高级PHP开发工程师,3-5年,本科,全职,4506196,医联,"2018-06-10 09:43:44",0,成都,15k-25k,1,"行业独角兽,成长空间大,团队氛围好,期权激励",B轮,"社交网络,医疗健康",500-2000人,"专项奖金,绩效奖金,岗位晋升,扁平管理",6689546,高新区,i/image/M00/05/E2/Cgp3O1bL1d-AZdsWAAAROo8ljn4602.png,"架构师,Yii,laravel,Java,系统架构",,null,104.071436,30.545068,09:43发布,null,95,1,成都医云科技有限公司,disabled,1528608831000,null,0,null,0,0,0,null,null,开发/测试/运维类,后端开发,0,1号线,世纪城,1号线_天府五街;1号线_天府三街;1号线_世纪城
341494,php开发工程师,3-5年,本科,全职,4386891,高灯科技,"2018-06-10 09:39:31",0,广州,10k-15k,0,"腾讯控股,靠谱项目,资金安全,和谐团队",不需要融资,"移动互联网 电子商务",150-500人,"交通补助,定期体检,双休,地铁口",10223682,海珠区,i/image2/M00/52/23/CgoB5lsVDL-ABPkzAAAOIYvg_ag922.png,"高级,中级,Yii,MySQL,后端",,null,113.323844,23.096432,09:39发布,null,5,1,海南高灯科技有限公司,today,1528605086000,null,0,null,0,0,0,null,null,开发/测试/运维类,后端开发,0,8号线,客村,3号线_客村;3号线_广州塔;8号线_客村;8号线_赤岗
10539,PHP开发工程师,1-3年,本科,全职,4200256,安心记加班,"2018-06-10 09:25:19",0,上海,12k-20k,1,"弹性时间,绩效奖金,年终奖金,大牛云集",A轮,移动互联网,150-500人,"股票期权,扁平管理,帅哥多,节日礼物",269658,徐汇区,image1/M00/00/15/CgYXBlTUWEKACg74AAB3ZY8NhUQ704.png,"信息安全,中级","信息安全,中级",null,121.440641,31.193908,09:25发布,null,90,2,上海慧贤网络科技有限公司,today,1528621678000,null,0,null,0,0,0,null,null,开发/测试/运维类,后端开发,0,11号线(花桥),上海体育场,1号线_上海体育馆;1号线_徐家汇;1号线_衡山路;4号线_东安路;4号线_上海体育场;4号线_上海体育馆;7号线_东安路;7号线_肇嘉浜路;9号线_肇嘉浜路;9号线_徐家汇;10号线(航中路)_交通大学;10号线(虹桥火车站)_交通大学;11号线(嘉定北)_徐家汇;11号线(嘉定北)_交通大学;11号线(花桥)_徐家汇;11号线(花桥)_交通大学
66619,PHP开发工程师,1-3年,大专,全职,3413413,智悅网络,"2018-06-10 09:14:03",0,广州,6k-10k,1,"五险一金,丰厚期权,带薪年假,节日福利",A轮,"移动互联网,电子商务",50-150人,"五险一金,年底双薪,专项奖金,带薪年假",1637156,天河区,i/image/M00/5E/61/CgqKkVfrNDSAXSvqAAECvYqe3hY894.jpg,"资深,高级,中级,后端开发,MySQL",,"员村,员村,棠下,棠下,东圃,东圃",113.371417,23.123497,09:14发布,null,53,1,广州智悦网络科技有限公司,today,1528614107000,null,0,null,0,0,0,null,null,开发/测试/运维类,后端开发,0,5号线,科韵路,5号线_员村;5号线_科韵路
233304,接收0基础PHP开发实习生/PHP工程师助理,不限,大专,全职,4359558,燃网络,"2018-06-10 09:11:16",0,合肥,4k-6k,0,"双休不加班,双倍公积金,五险一金,高薪晋升",未融资,"移动互联网,游戏",少于15人,,9452943,包河区,i/image/M00/51/49/CgpEMlly8hSAbcA2AABQfzNbLIM888.png,"初级,Java",,null,117.28676,31.847092,09:11发布,null,38,1,南京网燃网络科技有限公司,today,1528614377000,null,0,null,0,0,0,null,null,开发/测试/运维类,后端开发,0,1号线,合工大南区,1号线_合工大南区
22450,PHP工程师,1-3年,本科,全职,3897887,MAKA,"2018-06-10 08:55:58",0,广州,8k-12k,1,"周末双休,员工旅游,带薪年假,六险一金",A轮,"企业服务,移动互联网",50-150人,"牛人云集,年底双薪,技能培训,定期体检",259101,海珠区,i/image/M00/82/A0/CgpFT1q-H9OAUMImAAA7qY3KuvU802.jpg,"旅游,移动互联网,医疗健康,大数据,python","旅游,移动互联网,医疗健康,大数据,python","新港,赤岗,客村",113.32377,23.09642,08:55发布,null,100,1,深圳格莱珉文化传播有限公司广州分公司,today,1528611490000,null,0,null,0,0,0,null,null,开发/测试/运维类,软件开发,0,8号线,客村,3号线_客村;3号线_广州塔;8号线_客村;8号线_赤岗
72106,php开发工程师,5-10年,本科,全职,4693873,蛋壳公寓,"2018-06-10 05:39:43",0,北京,25K-50K,1,六险一金，带薪假，做长租的独角兽公司,B轮,O2O,2000人以上,"技能培训,年底双薪,股票期权,带薪年假",4750276,东城区,i/image/M00/6A/1E/CgpEMlmmolOAWTgtAAA3D7Z0p1A829.jpg,"资深,高级",,"朝阳门,东四,朝外",116.43027,39.924174,05:39发布,"试用期上公积金,地铁周边,6险1金",55,1,紫梧桐（北京）资产管理有限公司,today,1528617825000,null,0,null,0,0,0,null,null,开发/测试/运维类,后端开发,0,5号线,东四,2号线_东四十条;2号线_朝阳门;5号线_灯市口;5号线_东四;6号线_朝阳门;6号线_东四
333501,"PHP 逻辑算法开发工程师 - 微信方向",1-3年,不限,全职,4584502,晓云科技,"2018-06-10 01:40:55",0,广州,6k-12k,0,"技术入股,年底双薪,五险一金,弹性工作",A轮,移动互联网、企业服务,15-50人,"定期体检,年终分红,股票期权,专项奖金",3677543,花都区,i/image3/M00/4D/F0/CgpOIFrpp7mAe6BbAABjMreTb28216.jpg,"资深,架构师,后端,MySQL,网站开发",,null,113.227272,23.401962,01:40发布,null,100,1,广州市晓云科技有限公司,today,1528625134000,null,0,null,0,0,0,null,null,开发/测试/运维类,后端开发,0,null,null,null
137430,PHP开发工程师,1-3年,本科,全职,4692186,牛交所,"2018-06-10 01:12:15",0,北京,10k-15k,0,"免费午餐,团队气氛好,出境游",A轮,"移动互联网,金融",15-50人,,5555983,朝阳区,i/image/M00/40/A8/CgqKkVd7L-iACNLsAADeJcbSLtc288.gif,"后端,js,ThinkPHP",,"CBD,建外大街,国贸",116.456809,39.907463,01:12发布,null,57,1,北京凯能万景经济咨询有限公司,today,1528564267000,null,0,null,0,0,0,null,null,开发/测试/运维类,后端开发,0,10号线,国贸,1号线_永安里;1号线_国贸;10号线_金台夕照;10号线_国贸
167886,php开发工程师,1-3年,大专,全职,4702386,长远新科,"2018-06-10 00:56:10",0,北京,13K-20K,0,13-16薪、如需加班有加班费、地铁周边,不需要融资,"移动互联网,生活服务",50-150人,"年底双薪,股票期权,绩效奖金,年终分红",6839373,海淀区,i/image2/M00/09/CC/CgotOVnbPpCAO1i8AAA1WExbtCc862.png,"中级,js,html5",,上地,116.315931,40.041733,00:56发布,null,100,2,北京长远新科商贸有限公司,disabled,1528630984000,null,0,null,0,0,0,null,null,开发/测试/运维类,后端开发,0,13号线,上地,13号线_上地
153033,PHP工程师,3-5年,大专,全职,4603848,英思奇,"2018-06-10 00:42:35",0,深圳,20k-35k,0,"包吃包住,21天年假,股权激励,公司规模大",未融资,"移动互联网,电子商务",50-150人,"年底双薪,股票期权,包吃\包住",7982764,宝安区,i/image/M00/34/C2/CgpFT1lDOCCAM00nAAAZ3jK1imM840.png,"信息安全,MySQL","信息安全,MySQL",西乡,113.859696,22.57025,00:42发布,null,0,0,深圳市英思奇信息咨询有限公司,today,1528632865000,null,0,null,0,0,0,null,null,开发/测试/运维类,后端开发,0,1号线/罗宝线,坪洲,1号线/罗宝线_坪洲;1号线/罗宝线_西乡;11号线/机场线_碧海湾
70,高级PHP开发工程师,3-5年,本科,全职,4576350,宝宝树,"2018-06-10 00:35:46",0,厦门,20k-40k,1,"福利好,待遇好,发展好,环境好",D轮及以上,社交网络,500-2000人,"商业医疗保险,股票期权,带薪年假,扁平管理",6298811,思明区,i/image/M00/01/A2/CgqKkVZyGeyAUPeJAAAIURCZrmM626.png,"信息安全,Java,MySQL","信息安全,Java,MySQL",null,118.196571,24.485404,00:35发布,null,0,0,宝宝树（北京）信息技术有限公司,disabled,1528633125000,null,0,null,0,0,0,null,null,开发/测试/运维类,后端开发,0,null,null,null
381832,php开发工程师,5-10年,本科,全职,4547618,友趣挑战,"2018-06-10 00:01:09",0,上海,18K-25K,0,全员期权、带薪年假、扁平管理、专注小程序,天使轮,社交网络,少于15人,"小程序,带薪年假,绩效奖金,弹性工作",29970,徐汇区,i/image2/M00/4B/BA/CgoB5lrzqfKAOl4hAAAdYKPrC_s370.png,"资深,高级,后端开发,后端,Node.js",,田林,121.416149,31.171114,00:01发布,null,16,1,上海轻墨信息科技有限公司,today,1528623610000,null,0,null,0,0,0,null,null,开发/测试/运维类,后端开发,0,9号线,虹漕路,9号线_桂林路;12号线_虹漕路;12号线_桂林公园
212939,PHP开发工程师,3-5年,不限,全职,4570600,一览科技,"2018-06-09 23:52:21",0,武汉,8k-15k,0,"技术大牛,团队氛围好,风口行业",B轮,"移动互联网,文化娱乐",150-500人,"股票期权,弹性工作,领导好,扁平管理",3752127,东湖新技术开发区,i/image/M00/32/E7/CgpFT1k_qHiAdFKnAAAclfF44sA60.jpeg,"Java,架构",,流芳,114.42095,30.456256,1天前发布,null,0,0,北京一览科技有限公司,today,1528559520000,null,0,null,0,0,0,null,null,开发/测试/运维类,后端开发,0,null,null,null
341494,php架构师,5-10年,本科,全职,4658267,高灯科技,"2018-06-10 09:39:26",0,广州,25k-30k,0,"腾讯系,靠谱项目,和谐团队,技术大咖",不需要融资,"移动互联网 电子商务",150-500人,"交通补助,定期体检,双休,地铁口",10223682,海珠区,i/image2/M00/52/23/CgoB5lsVDL-ABPkzAAAOIYvg_ag922.png,"信息安全,专家,资深,系统架构","信息安全,专家,资深,系统架构",null,113.323844,23.096432,09:39发布,null,5,1,海南高灯科技有限公司,today,1528605086000,null,0,null,0,0,0,null,null,开发/测试/运维类,后端开发,0,8号线,客村,3号线_客村;3号线_广州塔;8号线_客村;8号线_赤岗
66619,PHP技术总监,3-5年,大专,全职,4695047,智悅网络,"2018-06-10 09:14:02",0,广州,15k-30k,1,"期权奖励,年终奖,扁平管理,五险一金",A轮,"移动互联网,电子商务",50-150人,"五险一金,年底双薪,专项奖金,带薪年假",1637156,天河区,i/image/M00/5E/61/CgqKkVfrNDSAXSvqAAECvYqe3hY894.jpg,"资深,高级,后端,Java",,"棠下,天河公园,天园",113.372277,23.12281,09:14发布,null,53,1,广州智悦网络科技有限公司,today,1528614107000,null,0,null,0,0,0,null,null,开发/测试/运维类,后端开发,0,5号线,科韵路,5号线_员村;5号线_科韵路
307965,PHP研发工程师,3-5年,本科,全职,4504632,看理想,"2018-06-09 23:39:14",0,北京,15k-18k,0,"氛围好,扁平管理,福利多",A轮,其他,50-150人,"带薪年假,定期体检,扁平管理,五险一金",10679142,东城区,i/image2/M00/38/E7/CgotOVpMnRGAZdALAADF-A1oMRc383.jpg,"高级,后端开发,架构师,后端,全栈",,和平里,116.416151,39.960673,1天前发布,null,100,0,北京看理想文化传媒有限公司,today,1528558781000,null,0,null,0,0,0,null,null,开发/测试/运维类,后端开发,0,5号线,安定门,2号线_安定门;2号线_雍和宫;5号线_雍和宫;5号线_和平里北街;5号线_和平西桥;13号线_柳芳
16869,PHP开发工程师,5-10年,本科,全职,3684367,朗播网,"2018-06-09 23:16:50",0,北京,20k-40k,1,"出国旅游,免费健身,股票期权,带薪年假",B轮,教育,150-500人,"扁平管理,定期体检,股票期权,团建活动",460579,海淀区,i/image/M00/5C/A7/CgpFT1mRcq-AXzTxAAAfWjt_l2Q438.png,"Python,Java,web",,"上地,马连洼,西二旗",116.31287,40.03445,1天前发布,null,100,1,北京博智天下信息技术有限公司,today,1528557427000,null,0,null,0,0,0,null,null,开发/测试/运维类,后端开发,0,13号线,上地,13号线_上地
12195,高级PHP开发工程师,3-5年,本科,全职,3497414,要出发,"2018-06-09 22:32:10",0,广州,10k-20k,1,五险一金，周末双休，周边旅游，弹性工作,D轮及以上,"电子商务,生活服务",500-2000人,"牛人云集,技能培训,豪华下午茶,酒店预订",641044,天河区,image2/M00/09/92/CgpzWlYKDLuACXd8AAC303c5Jy8550.png,"电商,MySQL,高并发web","电商,MySQL,高并发web","棠下,东圃,员村",113.373772,23.12407,1天前发布,null,100,1,广州酷旅旅行社有限公司,today,1528634265000,null,0,null,0,0,0,null,null,开发/测试/运维类,后端开发,0,5号线,科韵路,5号线_员村;5号线_科韵路
25816,PHP开发工程师,不限,不限,全职,450282,韦尔科技,"2018-06-09 21:43:52",0,北京,7k-14k,0,每月两次TB，期权，持续投资，导师制度,未融资,"移动互联网,数据服务",15-50人,"节日礼物,年度旅游,弹性工作,定期体检",802888,海淀区,i/image2/M00/43/CC/CgoB5lrJ9O6AFl4sAAAQoF3oEGg400.jpg,,,"上地,西北旺,西二旗",116.305692,40.043382,1天前发布,null,25,2,北京韦尔科技有限公司,today,1528551266000,null,0,null,0,0,0,null,null,技术,后端开发,0,昌平线,西二旗,13号线_西二旗;昌平线_西二旗
2252,PHP高级软件开发工程师,3-5年,本科,全职,4515616,青钱公司,"2018-06-09 21:40:31",0,北京,20k-30k,1,"平台好,机会多,团队好,大牛多",未融资,移动互联网,2000人以上,"技能培训,节日礼物,年底双薪,带薪年假",7723111,海淀区,image1/M00/00/07/Cgo8PFTUWAmAXAxFAAEYN7xEhqc961.png,"Android,后端,golang",,"北京大学,中关村,苏州街",116.310072,39.984547,1天前发布,null,53,1,北京青钱信息技术有限公司,today,1528551460000,null,0,null,0,0,0,null,null,开发/测试/运维类,前端开发/移动开发,0,10号线,海淀黄庄,4号线大兴线_海淀黄庄;4号线大兴线_中关村;4号线大兴线_北京大学东门;10号线_苏州街;10号线_海淀黄庄
256912,PHP,3-5年,本科,全职,4164775,手艺狗,"2018-06-09 21:36:22",0,广州,10K-20K,0,双休，社保,天使轮,移动互联网、生活服务,15-50人,"股票期权,年终分红,专项奖金",8445289,海珠区,i/image/M00/6C/C9/CgpEMlmtXtmAVE4OAAC-lxpd4P0023.jpg,"高级,后端开发",,琶洲,null,null,1天前发布,null,0,0,广州手艺狗网络有限公司,today,1528628263000,null,0,null,0,0,0,null,null,开发/测试/运维类,后端开发,0,null,null,null
109,"高级PHP 开发工程师",3-5年,本科,全职,4576210,马蜂窝,"2018-06-09 21:27:03",0,北京,15k-30k,1,"技术驱动,免费三餐,美女如云,气氛活泼",D轮及以上,"移动互联网,旅游",500-2000人,"弹性工作,扁平管理,氛围好,年度体检",379984,朝阳区,i/image3/M00/25/96/Cgq2xlqXn9-ALvW-AAAR5MK8aqs262.png,"广告营销,后端开发,后端,Java,架构","广告营销,后端开发,后端,Java,架构",null,39.897445,116.331398,1天前发布,null,100,1,北京蚂蜂窝网络科技有限公司,today,1528634692000,null,0,null,0,0,0,null,null,开发/测试/运维类,后端开发,0,null,null,null
148452,高级PHP工程师,3-5年,本科,全职,2968486,布谷鸟科技,"2018-06-09 21:26:34",0,深圳,20k-25k,1,"团队氛围好,晋升机会大",不需要融资,"电子商务,移动互联网",500-2000人,"高颜值公司,发展潜力大,美女多,岗位晋升",6126042,南山区,i/image/M00/AE/8B/CgqKkVi2Ri-AOrabAAGbx1r2V0w235.jpg,"后端,ThinkPHP",,null,113.923803,22.508925,1天前发布,null,82,1,深圳布谷鸟信息科技有限公司,threeDays,1528546249000,null,0,null,0,0,0,null,null,开发/测试/运维类,后端开发,0,2号线/蛇口线,登良,2号线/蛇口线_登良
130800,php高级工程师,1-3年,不限,全职,4702317,舞牛科技,"2018-06-09 21:05:48",0,成都,4K-8K,0,周末双休，六险一金，包吃,不需要融资,"移动互联网,企业服务",少于15人,"年底双薪,股票期权,专项奖金,年终分红",6967875,双流县,i/image3/M00/10/B0/CgpOIFpq-tGAQHn5AAAgIBr5Gos200.png,全栈,,华阳,104.042464,30.4989,1天前发布,null,100,1,成都舞牛科技有限公司,disabled,1528631642000,null,0,null,0,0,0,null,null,开发/测试/运维类,后端开发,0,null,null,null
197401,PHP程序员,1-3年,大专,全职,3229149,怒雕科技,"2018-06-09 20:46:54",0,成都,4k-8k,0,提升空间大。项目多。提成多,不需要融资,移动互联网,50-150人,"带薪年假,周末双休,节假日福利,交通补助",6293440,武侯区,i/image/M00/27/87/CgpFT1kkMRWAI_GXAAAvbYsWSW0670.png,"支付,高级,MySQL,后端,ThinkPHP","支付,高级,MySQL,后端,ThinkPHP",null,103.97784,30.633683,1天前发布,null,57,1,四川怒雕科技有限公司,today,1528557332000,null,0,null,0,0,0,null,null,开发/测试/运维类,后端开发,0,null,null,null
12253,高级PHP研发工程师,3-5年,本科,全职,4683043,飞智,"2018-06-09 20:42:04",0,上海,10k-20k,0,"扁平管理,绩效奖金,年轻团队",不需要融资,"游戏,硬件",50-150人,"年终分红,年底双薪,绩效奖金,五险一金",151061,杨浦区,i/image/M00/36/95/CgpFT1lHlQKAGGzNAABoH72Ff_k944.png,"信息安全,Java,后端","信息安全,Java,后端","新江湾城,五角场",121.506266,31.314152,1天前发布,null,100,1,上海飞智电子科技有限公司,today,1528590262000,null,0,null,0,0,0,null,null,开发/测试/运维类,后端开发,0,10号线(航中路),江湾体育场,10号线(航中路)_殷高东路;10号线(航中路)_三门路;10号线(航中路)_江湾体育场;10号线(虹桥火车站)_殷高东路;10号线(虹桥火车站)_三门路;10号线(虹桥火车站)_江湾体育场
262476,PHP高级软件开发工程师,3-5年,本科,全职,4379837,中化能源科技有限公司,"2018-06-09 20:00:13",0,北京,15k-25k,1,"结果导向,充分授权,薪酬福利好,团队氛围好",不需要融资,"移动互联网,电子商务",2000人以上,"午餐补助,年终分红",9020822,海淀区,i/image2/M00/02/65/CgotOVnAmEKAUcqLAAAdQQSKmc4109.png,,,null,116.308811,39.983578,1天前发布,null,62,2,中化石油有限公司,threeDays,1528544648000,null,0,null,0,0,0,null,null,开发/测试/运维类,软件开发,0,10号线,海淀黄庄,4号线大兴线_海淀黄庄;4号线大兴线_中关村;4号线大兴线_北京大学东门;10号线_苏州街;10号线_海淀黄庄
135964,php实习生,不限,本科,实习,2590097,百思威,"2018-06-09 19:52:55",0,天津,2k以上,0,好好表现能转入正式员工,天使轮,"移动互联网,教育",少于15人,,5450507,南开区,i/image/M00/3B/CB/Cgp3O1ds1ESAd9v_AAARUNLNs8w999.png,,,"侯台,华苑街",117.122716,39.09618389,1天前发布,null,0,0,天津市百思威科技有限公司,threeDays,1528516503000,null,0,null,0,0,0,null,null,开发/测试/运维类,后端开发,0,3号线,王顶堤,3号线_王顶堤;3号线_华苑
12195,PHP架构师,5-10年,本科,全职,4527165,要出发,"2018-06-09 22:32:06",0,广州,15k-30k,1,"技术分享,五险一金,双休,下午茶",D轮及以上,"电子商务,生活服务",500-2000人,"牛人云集,技能培训,豪华下午茶,酒店预订",641044,天河区,image2/M00/09/92/CgpzWlYKDLuACXd8AAC303c5Jy8550.png,"资深,系统架构",,null,0.0,0.0,1天前发布,null,100,1,广州酷旅旅行社有限公司,today,1528634265000,null,0,null,0,0,0,null,null,开发/测试/运维类,后端开发,0,null,null,null
197401,PHP程序员,1-3年,不限,全职,4136024,怒雕科技,"2018-06-09 20:45:03",0,成都,8K-12K,0,"高薪,学习机会多,双休",不需要融资,移动互联网,50-150人,"带薪年假,周末双休,节假日福利,交通补助",6293440,武侯区,i/image/M00/27/87/CgpFT1kkMRWAI_GXAAAvbYsWSW0670.png,"支付,中级,Node.js,MySQL,后端","支付,中级,Node.js,MySQL,后端",null,103.97784,30.633683,1天前发布,null,57,1,四川怒雕科技有限公司,today,1528557332000,null,0,null,0,0,0,null,null,开发/测试/运维类,后端开发,0,null,null,null
12253,PHP,3-5年,大专,全职,4683065,飞智,"2018-06-09 20:42:04",0,上海,10k-20k,0,"扁平管理,年轻团队,绩效奖金",不需要融资,"游戏,硬件",50-150人,"年终分红,年底双薪,绩效奖金,五险一金",151061,杨浦区,i/image/M00/36/95/CgpFT1lHlQKAGGzNAABoH72Ff_k944.png,"信息安全,游戏,后端开发,后端,Java","信息安全,游戏,后端开发,后端,Java","新江湾城,五角场",121.506266,31.314152,1天前发布,null,100,1,上海飞智电子科技有限公司,today,1528590262000,null,0,null,0,0,0,null,null,开发/测试/运维类,后端开发,0,10号线(航中路),江湾体育场,10号线(航中路)_殷高东路;10号线(航中路)_三门路;10号线(航中路)_江湾体育场;10号线(虹桥火车站)_殷高东路;10号线(虹桥火车站)_三门路;10号线(虹桥火车站)_江湾体育场
50702,高级PHP开发工程师,3-5年,本科,全职,3152657,美团点评,"2018-06-09 19:48:21",0,北京,28k-42k,1,"大牛团队,超值期权,带薪年假,补充商险",D轮及以上,"移动互联网,O2O",2000人以上,"技能培训,绩效奖金,岗位晋升,领导好",6417400,朝阳区,i/image/M00/6A/05/Cgp3O1gW8zSAUwUsAABMptH-XY087.jpeg,"电商,资深,后端开发,架构","电商,资深,后端开发,架构","望京,来广营,花家地",116.466554,39.995147,1天前发布,"早九晚六,免费休闲游,带薪病假,交通补助,免费体检,弹性工作,BAT背景,地铁周边,5险1金,定期团建,生日聚会,6险1金",100,1,北京三快在线科技有限公司,threeDays,1528544896000,null,0,null,0,0,0,null,null,开发/测试/运维类,后端开发,0,15号线,阜通,13号线_望京西;14号线东段_望京;14号线东段_阜通;15号线_望京;15号线_望京西
31304,PHP开发工程师,不限,本科,全职,4363120,尚米网络,"2018-06-09 19:41:28",0,深圳,8k-10k,1,"五险一金,环境优美,交通便利,福利好",不需要融资,"移动互联网,电子商务",150-500人,"绩效奖金,年度旅游,技能培训,年终分红",5283841,宝安区,i/image/M00/55/4A/CgpEMll6tmSAFq1pAAAVo6MnrSg151.png,后端,,新安,113.922353,22.577642,1天前发布,null,86,1,深圳尚米网络技术有限公司,threeDays,1528542681000,null,0,null,0,0,0,null,null,开发/测试/运维类,后端开发,0,5号线/环中线,兴东,5号线/环中线_洪浪北;5号线/环中线_兴东
181952,PHP开发工程师,1-3年,大专,全职,4679672,司睿游戏,"2018-06-09 19:39:20",0,广州,6k-12k,1,"五险一金,项目奖金,带薪年假",天使轮,游戏,15-50人,"五险一金,工作餐,弹性工作,项目分红",1413161,天河区,i/image/M00/8C/54/CgpEMlrZrjCAOU_8AAQARRj9B-8032.jpg,"高级,后端开发,游戏开发,手游",,null,113.377018,23.125227,1天前发布,null,100,1,广州司睿网络有限公司,disabled,1528608254000,null,0,null,0,0,0,null,null,开发/测试/运维类,后端开发,0,5号线,科韵路,5号线_科韵路
330203,PHP开发工程师,1-3年,不限,全职,4285423,笑一回科技,"2018-06-09 19:36:13",0,武汉,6K-12K,0,"奖金多,老板非常好,环境好&lt;",未融资,移动互联网,15-50人,"""""",7205500,洪山区,i/image3/M00/25/96/Cgq2xlqXn3OAL9ycAABHwhdsu1o978.png,"总监,资深,高级,中级,后端开发",,光谷,null,null,1天前发布,null,0,0,湖北笑一回科技有限公司,threeDays,1528544144000,null,0,null,0,0,0,null,null,开发/测试/运维类,后端开发,0,null,null,null
218323,PHP工程师,3-5年,本科,全职,4013520,消费者联盟,"2018-06-09 19:08:54",0,深圳,8k-10k,0,"五险,股票期权,年终奖,包吃包住",A轮,"移动互联网,电子商务",150-500人,"专项奖金,绩效奖金,股票期权,年度旅游",8617859,宝安区,i/image/M00/5B/64/CgpFT1mPAsOAWOQRAAE30_Fil50910.jpg,中级,,沙井,113.832557,22.727044,1天前发布,null,0,0,深圳市海纳联达实业有限公司,overSevenDays,1523416030000,null,0,null,0,0,0,null,null,开发/测试/运维类,后端开发,0,11号线/机场线,沙井,11号线/机场线_沙井
128945,PHP资深研发工程师,3-5年,本科,全职,2893453,梦映动漫,"2018-06-09 19:02:11",0,广州,12k-18k,1,"五险一金,周末双休,年底双薪,年度旅行",A轮,"移动互联网,文化娱乐",50-150人,"股票期权,领导好,五险一金,扁平管理",5027294,海珠区,i/image/M00/63/08/CgqKkVgAP3qAOW0KAAARjYqxNC4326.jpg,"安全,大数据,Java,架构","安全,大数据,Java,架构",null,113.404327,23.09236,1天前发布,null,100,1,广州梦映动漫网络科技有限公司,threeDays,1528548118000,null,0,null,0,0,0,null,null,开发/测试/运维类,后端开发,0,null,null,null
328674,PHP后端工程师,1-3年,不限,全职,4560521,乐奇互娱,"2018-06-09 18:59:08",0,温州,3k-5k,0,"包吃,包住,有大咖呆,氛围好",未融资,游戏,少于15人,"""""",9947678,乐清市,i/image3/M00/50/2D/CgpOIFr2g5uAbCfMAAA3ySoeHgw650.png,"支付,中级,后端开发,Java","支付,中级,后端开发,Java",null,121.009571,28.100011,1天前发布,null,100,0,乐清市乐奇网络技术有限公司,today,1528635081000,null,0,null,0,0,0,null,null,开发/测试/运维类,后端开发,0,null,null,null
246130,PHP开发工程师（中级）,3-5年,本科,全职,4255241,广东原动力,"2018-06-09 18:56:16",0,广州,11k-17k,0,"年终奖励,股权激励,涨薪机制,技术提升",未融资,"移动互联网,信息安全",50-150人,,9650808,天河区,i/image/M00/61/FE/CgpEMlmT-viAM04xAADDN02HXag281.png,"web,移动端,web前端,Java,MySQL",,"珠江新城,岗顶,石牌",113.34495,23.129639,1天前发布,null,0,0,广东原动力信息科技有限责任公司,today,1528628092000,null,0,null,0,0,0,null,null,开发/测试/运维类,前端开发/移动开发,0,3号线,石牌桥,3号线_石牌桥;3号线_岗顶;3号线_华师;5号线_潭村
119384,PHP研发工程师,1-3年,本科,全职,3202525,乾润信息,"2018-06-09 18:52:32",0,广州,9k-18k,0,"年终双薪,成长空间,欢乐的团队,保险医疗",未融资,"移动互联网,旅游",15-50人,"年底双薪,带薪年假,定期体检,午餐补助",4520812,天河区,i/image/M00/16/70/Cgp3O1bvmb2AR_LdAAAQexsybeU782.png,"后端,ThinkPHP",,"天河公园,石牌,岗顶",113.350174,23.132292,1天前发布,null,0,0,广州市乾润信息技术有限公司,today,1528628117000,null,0,null,0,0,0,null,null,开发/测试/运维类,后端开发,0,3号线,华师,3号线_岗顶;3号线_华师
75182,高级PHP开发工程师,5-10年,本科,全职,4702212,缤果盒子,"2018-06-09 18:48:24",0,北京,18k-30k,1,"弹性工作,发展空间大,福利待遇好,技术驱",B轮,"移动互联网,O2O",500-2000人,"股票期权,带薪年假,扁平管理,领导好",7596192,朝阳区,i/image/M00/30/13/CgpEMlkxMsaAKKsPAAA0XXRqBSs065.jpg,,,null,39.897445,116.331398,1天前发布,null,21,2,北京缤歌网络科技有限公司,disabled,1528544494000,null,0,null,0,0,0,null,null,开发/测试/运维类,后端开发,0,null,null,null
304551,PHP开发工程师,1-3年,大专,全职,4007224,库库猫,"2018-06-09 18:37:59",0,上海,7K-10K,0,五险一金,未融资,"移动互联网,电子商务",少于15人,"五险一金,绩效奖金,年底双薪,定期体检",9573896,闵行区,i/image3/M00/45/55/Cgq2xlq-Ao-AVuHWAAAK_A9vV_c340.png,"中级,后端开发,后端,图像处理,架构",,莘庄,121.370253,31.121143,1天前发布,null,28,1,上海乾益网络科技有限公司,today,1528629874000,null,0,null,0,0,0,null,null,开发/测试/运维类,后端开发,0,null,null,null
315931,PHP高级开发工程师,3-5年,大专,全职,4548606,小弹壳,"2018-06-09 18:27:04",0,广州,9k-16k,0,"六险一金,年终奖金,餐饮补贴,全勤奖",不需要融资,移动互联网、电子商务,15-50人,"""""",9738900,天河区,i/image2/M00/4E/60/CgoB5lsGH-mAD6TcAAEcdI3ZsJ8133.jpg,"软件开发,后端开发,TI行业",,车陂,113.399,23.12176,1天前发布,null,0,0,广州市小弹壳网络科技有限公司,threeDays,1528536201000,null,0,null,0,0,0,null,null,开发/测试/运维类,后端开发,0,4号线,车陂南,4号线_车陂;4号线_车陂南;5号线_车陂南;5号线_东圃
12195,PHP开发工程师,1-3年,本科,全职,1604101,要出发,"2018-06-09 22:32:06",0,广州,8k-15k,1,五险一金，带薪年假，周末双休，周边旅游,D轮及以上,"电子商务,生活服务",500-2000人,"牛人云集,技能培训,豪华下午茶,酒店预订",641044,天河区,image2/M00/09/92/CgpzWlYKDLuACXd8AAC303c5Jy8550.png,"电商,Java","电商,Java","天园,天河公园,棠下",113.373772,23.12407,1天前发布,null,100,1,广州酷旅旅行社有限公司,today,1528634265000,null,0,null,0,0,0,null,null,技术,后端开发,0,5号线,科韵路,5号线_员村;5号线_科韵路
50702,高级PHP开发工程师,3-5年,本科,全职,3793996,美团点评,"2018-06-09 19:48:21",0,北京,30k-40k,1,大牛团队,D轮及以上,"移动互联网,O2O",2000人以上,"技能培训,绩效奖金,岗位晋升,领导好",6417400,朝阳区,i/image/M00/6A/05/Cgp3O1gW8zSAUwUsAABMptH-XY087.jpeg,MySQL,,"望京,来广营,花家地",116.466554,39.995147,1天前发布,"早九晚六,免费休闲游,带薪病假,交通补助,免费体检,弹性工作,BAT背景,地铁周边,5险1金,定期团建,生日聚会,6险1金",100,1,北京三快在线科技有限公司,threeDays,1528544896000,null,0,null,0,0,0,null,null,开发/测试/运维类,后端开发,0,15号线,阜通,13号线_望京西;14号线东段_望京;14号线东段_阜通;15号线_望京;15号线_望京西
128945,PHP开发工程师,1-3年,大专,全职,3073611,梦映动漫,"2018-06-09 19:02:11",0,广州,8k-12k,1,"年底双薪,五险一金,周末双休,年度旅行",A轮,"移动互联网,文化娱乐",50-150人,"股票期权,领导好,五险一金,扁平管理",5027294,海珠区,i/image/M00/63/08/CgqKkVgAP3qAOW0KAAARjYqxNC4326.jpg,"MySQL,web,app",,null,113.404327,23.09236,1天前发布,null,100,1,广州梦映动漫网络科技有限公司,threeDays,1528548118000,null,0,null,0,0,0,null,null,开发/测试/运维类,后端开发,0,null,null,null
246130,PHP开发工程师（初级）,1-3年,大专,全职,4255228,广东原动力,"2018-06-09 18:55:46",0,广州,7k-10k,0,"年终奖励,股权激励,涨薪机制,技术提升",未融资,"移动互联网,信息安全",50-150人,,9650808,天河区,i/image/M00/61/FE/CgpEMlmT-viAM04xAADDN02HXag281.png,"移动端,web前端,Java,后端",,"珠江新城,岗顶,石牌",113.34495,23.129639,1天前发布,null,0,0,广东原动力信息科技有限责任公司,today,1528628092000,null,0,null,0,0,0,null,null,开发/测试/运维类,前端开发/移动开发,0,3号线,石牌桥,3号线_石牌桥;3号线_岗顶;3号线_华师;5号线_潭村
244500,初、中级PHP工程师,1-3年,大专,全职,4664061,联翘科技,"2018-06-09 18:00:52",0,深圳,13k-18k,1,"团队氛围好,晋升机会大",天使轮,电子商务,150-500人,"弹性工作,管理规范,美女多,帅哥多",8683488,南山区,i/image2/M00/4C/D8/CgoB5lr6hHyAMYlZAABqWiuyHQs923.png,"初级,后端,ThinkPHP",,"蛇口,南油,后海",113.91947,22.496346,1天前发布,null,100,3,深圳市联翘科技有限公司,today,1528621024000,null,0,null,0,0,0,null,null,开发/测试/运维类,后端开发,0,2号线/蛇口线,海上世界,2号线/蛇口线_海上世界;2号线/蛇口线_水湾
69152,PHP开发工程师（外包）,3-5年,大专,全职,4459795,博奥特科技,"2018-06-09 17:59:27",0,深圳,13k-19k,1,"周末双休,节日福利,靠近地铁,早九晚六",未融资,"移动互联网,金融",150-500人,"绩效奖金,领导好,帅哥多,美女多",9710376,南山区,i/image3/M00/33/C4/Cgq2xlqmL1yAQ--9AAAqXWcpN_Y427.png,"linux,后端,ThinkPHP,mvc",,"南油,海王大厦,后海",113.933658,22.517373,1天前发布,null,100,2,深圳市博奥特科技有限公司,threeDays,1528531725000,null,0,null,0,0,0,null,null,开发/测试/运维类,后端开发,0,2号线/蛇口线,登良,2号线/蛇口线_登良;2号线/蛇口线_后海;11号线/机场线_南山;11号线/机场线_后海
286084,PHP开发工程师,3-5年,大专,全职,4702148,数币科技,"2018-06-09 17:56:27",0,北京,20k-40k,1,"14薪,五险一金,旅游团建,晋升培训",上市公司,"移动互联网,电子商务",150-500人,"领导好,扁平管理,五险一金",9342860,海淀区,i/image3/M00/4D/31/CgpOIFri1kyAdXL3AAA0tBtQANo592.png,"后端,laravel,MySQL",,"中关村,万泉河,苏州街",116.305591,39.982239,1天前发布,null,10,1,北京数币科技有限公司,today,1528626879000,null,0,null,0,0,0,null,null,开发/测试/运维类,后端开发,0,10号线,海淀黄庄,4号线大兴线_海淀黄庄;4号线大兴线_中关村;4号线大兴线_北京大学东门;10号线_苏州街;10号线_海淀黄庄
314561,PHP开发工程师,1-3年,本科,全职,4119461,尺马,"2018-06-09 17:33:16",0,杭州,8k-16k,0,提供住宿,天使轮,"移动互联网,企业服务",少于15人,"绩效奖金,股票期权,领导好,五险一金",9722488,江干区,i/image3/M00/0F/12/CgpOIFppX3yAXnzUAAAJscZYoWk030.PNG,"旅游,大数据,Java,MySQL,SAAS","旅游,大数据,Java,MySQL,SAAS",null,120.249017,30.309669,1天前发布,null,100,0,杭州盒鱼科技有限公司,threeDays,1528536787000,null,0,null,0,0,0,null,null,开发/测试/运维类,软件开发,0,1号线(下沙江滨),九和路,1号线(下沙江滨)_七堡;1号线(下沙江滨)_九和路;1号线(临平)_七堡;1号线(临平)_九和路
197004,高级PHP开发工程师,5-10年,本科,全职,3383216,深度搜索,"2018-06-09 17:28:11",0,北京,15k-25k,1,"股票期权,弹性制办公,人工智能,扁平化管理",A轮,"数据服务,其他",15-50人,"专项奖金,股票期权,午餐补助,扁平管理",7780158,朝阳区,i/image/M00/21/49/CgpFT1kViQGAS_fEAAArXsWYs1Y757.png,"后端开发,大数据,数据挖掘,Java",,"望京,来广营",116.451742,39.994023,1天前发布,null,76,2,北京深度搜索科技有限公司,disabled,1528536423000,null,0,null,0,0,0,null,null,开发/测试/运维类,后端开发,0,15号线,望京西,13号线_望京西;15号线_望京西
331262,php后端开发,3-5年,大专,全职,4497931,南京慢漫乐动漫设计有限公司,"2018-06-09 17:25:16",0,杭州,15k-30k,0,"五险一金,弹性工作",不需要融资,"移动互联网,电子商务",少于15人,,9990218,余杭区,i/image/M00/8E/AA/CgpFT1sCXoaAeGlfABudXzamgos238.png,MySQL,,null,120.009282,30.283821,1天前发布,null,33,1,南京慢漫乐动漫设计有限公司,threeDays,1528505779000,null,0,null,0,0,0,null,null,开发/测试/运维类,后端开发,0,null,null,null
123763,PHP研发工程师,3-5年,大专,全职,4572123,斗米,"2018-06-09 17:00:25",0,北京,20k-30k,1,七险一金,B轮,"移动互联网,O2O",500-2000人,"股票期权,扁平管理,管理规范,技能培训",8872706,海淀区,i/image2/M00/42/C3/CgotOVrDVUeANc21AABwNm509IU196.png,"MySQL,后端",,上地,0.0,0.0,1天前发布,"IPO倒计时,7险1金",19,1,北京斗米优聘科技发展有限公司,threeDays,1528539774000,null,0,null,0,0,0,null,null,开发/测试/运维类,后端开发,0,null,null,null
129243,PHP开发工程师,1-3年,大专,全职,4674102,礼品购,"2018-06-09 16:59:31",0,成都,8k-15k,0,上班不打卡,不需要融资,"移动互联网,电子商务",15-50人,"弹性工作,扁平管理,领导好,帅哥多",5508899,高新区,i/image/M00/2B/17/Cgp3O1cz8bSANJ0cAAArC7OgCVg907.png,,,null,104.063162,30.547266,1天前发布,null,0,0,杭州优普信息技术有限公司,today,1528622530000,null,0,null,0,0,0,null,null,开发/测试/运维类,后端开发,0,1号线,世纪城,1号线_天府五街;1号线_天府三街;1号线_世纪城
20999,PHP高级开发工程师,3-5年,本科,全职,3728119,XAIRCRAFT极飞无人机,"2018-06-09 16:50:28",0,广州,10k-18k,1,"极客氛围,大牛共事,高新科技",B轮,移动互联网,500-2000人,"五险一金,双休,股票期权,带薪年假",240547,天河区,i/image/M00/8F/3C/CgpFT1sHjHGAGNxqAAARpvufdSw248.jpg,后端,,null,113.416561,23.172419,1天前发布,每月餐补,90,1,广州极飞科技有限公司,today,1528623160000,null,0,null,0,0,0,null,null,开发/测试/运维类,后端开发,0,null,null,null
255325,高级PHP,应届毕业生,本科,全职,3849297,币世界,"2018-06-09 16:45:56",0,北京,16k-32k,0,"弹性时间,免费零食,五险一金,地铁周边",天使轮,"移动互联网,金融",50-150人,,729502,朝阳区,i/image2/M00/0C/8E/CgotOVngajOAauhxAADy68G_tWQ363.jpg,"前端,web",,望京,116.492246,40.005219,1天前发布,null,15,1,北京币世界网络科技有限公司,threeDays,1528533902000,null,0,null,0,0,0,null,null,开发/测试/运维类,后端开发,1,15号线,望京东,15号线_望京东
318330,资深PHP开发工程师,3-5年,本科,全职,4654422,孝道天下,"2018-06-09 16:34:54",0,青岛,10k-15k,0,"资深开发,待遇优厚,PHP开发",天使轮,"移动互联网,O2O",50-150人,,9771098,市南区,i/image2/M00/4E/91/CgoB5lsHvOGAAeQWAAA40U5G7Dk111.jpg,"本地生活,软件开发","本地生活,软件开发","香港中路,南京路",120.390394,36.065096,1天前发布,null,50,0,青岛孝心天下网络科技有限公司,threeDays,1528535708000,null,0,null,0,0,0,null,null,开发/测试/运维类,软件开发,0,3号线,五四广场,3号线_江西路;3号线_五四广场
50702,PHP高级研发工程师,3-5年,本科,全职,3794014,美团点评,"2018-06-09 19:48:20",0,北京,28k-37k,1,大牛团队,D轮及以上,"移动互联网,O2O",2000人以上,"技能培训,绩效奖金,岗位晋升,领导好",6417400,朝阳区,i/image/M00/6A/05/Cgp3O1gW8zSAUwUsAABMptH-XY087.jpeg,"MySQL,web",,"望京,来广营,花家地",116.466554,39.995147,1天前发布,"早九晚六,免费休闲游,带薪病假,交通补助,免费体检,弹性工作,BAT背景,地铁周边,5险1金,定期团建,生日聚会,6险1金",100,1,北京三快在线科技有限公司,threeDays,1528544896000,null,0,null,0,0,0,null,null,开发/测试/运维类,后端开发,0,15号线,阜通,13号线_望京西;14号线东段_望京;14号线东段_阜通;15号线_望京;15号线_望京西
246130,PHP开发工程师（专家）,10年以上,本科,全职,4255295,广东原动力,"2018-06-09 18:54:38",0,广州,23k-35k,0,"年终奖励,股权激励,涨薪机制,技术提升",未融资,"移动互联网,信息安全",50-150人,,9650808,天河区,i/image/M00/61/FE/CgpEMlmT-viAM04xAADDN02HXag281.png,"资深,架构师,全栈,移动端,重构",,"珠江新城,岗顶,石牌",113.34495,23.129639,1天前发布,null,0,0,广东原动力信息科技有限责任公司,today,1528628092000,null,0,null,0,0,0,null,null,开发/测试/运维类,前端开发/移动开发,0,3号线,石牌桥,3号线_石牌桥;3号线_岗顶;3号线_华师;5号线_潭村
244500,PHP开发工程师,1-3年,大专,全职,4694013,联翘科技,"2018-06-09 18:00:51",0,深圳,8k-10k,1,"带薪年假,青春活力,团建聚餐",天使轮,电子商务,150-500人,"弹性工作,管理规范,美女多,帅哥多",8683488,南山区,i/image2/M00/4C/D8/CgoB5lr6hHyAMYlZAABqWiuyHQs923.png,"电商,中级,初级,后端开发,ThinkPHP","电商,中级,初级,后端开发,ThinkPHP","蛇口,南油,后海",113.91947,22.496346,1天前发布,null,100,3,深圳市联翘科技有限公司,today,1528621024000,null,0,null,0,0,0,null,null,开发/测试/运维类,后端开发,0,2号线/蛇口线,海上世界,2号线/蛇口线_海上世界;2号线/蛇口线_水湾
129243,PHP开发工程师,3-5年,本科,全职,4666887,礼品购,"2018-06-09 16:59:24",0,成都,10k-20k,0,上班不打卡,不需要融资,"移动互联网,电子商务",15-50人,"弹性工作,扁平管理,领导好,帅哥多",5508899,高新区,i/image/M00/2B/17/Cgp3O1cz8bSANJ0cAAArC7OgCVg907.png,,,null,104.063162,30.547266,1天前发布,null,0,0,杭州优普信息技术有限公司,today,1528622530000,null,0,null,0,0,0,null,null,开发/测试/运维类,后端开发,0,1号线,世纪城,1号线_天府五街;1号线_天府三街;1号线_世纪城
69152,PHP,3-5年,大专,全职,4602744,博奥特科技,"2018-06-09 16:55:35",0,深圳,12k-20k,1,"技术大牛,行业前景好",未融资,"移动互联网,金融",150-500人,"绩效奖金,领导好,帅哥多,美女多",6622656,南山区,i/image3/M00/33/C4/Cgq2xlqmL1yAQ--9AAAqXWcpN_Y427.png,"js,后端,ThinkPHP",,"蛇口,南油,后海",113.935643,22.516956,1天前发布,null,0,0,深圳市博奥特科技有限公司,disabled,1528534516000,null,0,null,0,0,0,null,null,开发/测试/运维类,后端开发,0,2号线/蛇口线,登良,2号线/蛇口线_登良;2号线/蛇口线_后海;11号线/机场线_南山;11号线/机场线_后海
255325,高级PHP工程师,3-5年,本科,全职,3557027,币世界,"2018-06-09 16:45:55",0,北京,15k-30k,0,"创业,成就,分享财富",天使轮,"移动互联网,金融",50-150人,,8824941,朝阳区,i/image2/M00/0C/8E/CgotOVngajOAauhxAADy68G_tWQ363.jpg,"前端,Java,web",,朝外,116.443108,39.92147,1天前发布,null,0,0,北京币世界网络科技有限公司,overSevenDays,1514360734000,null,0,null,0,0,0,null,null,开发/测试/运维类,后端开发,0,2号线,朝阳门,2号线_朝阳门;6号线_东大桥;6号线_朝阳门
284105,php实习生,不限,本科,实习,4100505,莜桔西(UGC),"2018-06-09 16:23:47",0,北京,4k-8k,0,"全栈牛人带,技术氛围浓,团队温馨",天使轮,移动互联网,少于15人,"试用期全薪,股权激励,开拓进取,专注做事",8176782,朝阳区,i/image2/M00/1C/79/CgoB5loFTXKAWe3GAADYtOGvF6s481.png,"后端,python",,北苑,116.424186,40.037058,1天前发布,null,100,2,贵州莜桔西科技有限公司,threeDays,1528532559000,null,0,null,0,0,0,null,null,开发/测试/运维类,后端开发,1,5号线,北苑,5号线_北苑路北;5号线_立水桥南;13号线_北苑
242768,中级PHP开发工程师,不限,大专,全职,4088259,阿米巴,"2018-06-09 16:23:31",0,广州,10k-15k,1,"团队年轻化,技术大咖多,工作氛围好,发展前景大",不需要融资,"移动互联网,电子商务",150-500人,"年底双薪,定期体检,五险一金,带薪年假",5973702,越秀区,i/image2/M00/2D/9B/CgotOVox7ryAItSOAAAxgDQbfsM761.jpg,"后端开发,后端,Java,架构",,"建设,黄花岗",113.295453,23.136383,1天前发布,null,100,3,汕头市阿米巴网络科技有限公司,threeDays,1528510635000,null,0,null,0,0,0,null,null,开发/测试/运维类,后端开发,0,5号线,动物园,1号线_烈士陵园;1号线_东山口;5号线_淘金;5号线_区庄;5号线_动物园;6号线_黄花岗;6号线_区庄;6号线_东山口
201757,php程序员多名,不限,大专,全职,3687653,科唯信息技术,"2018-06-09 16:21:29",0,中山,5k-10k,1,"攻城狮,程序员",不需要融资,"移动互联网,O2O",15-50人,,7906004,中山市市辖区,i/image/M00/22/00/CgpEMlkQGJ6ABfMXAABm-oE5z-w964.jpg,"Java,MySQL,后端",,null,113.36685,22.523033,1天前发布,null,100,4,珠海市科唯信息技术有限公司,disabled,1528564765000,null,0,null,0,0,0,null,null,开发/测试/运维类,后端开发,0,null,null,null
220994,php开发工程师,应届毕业生,大专,全职,3710479,创之谷,"2018-06-09 16:18:07",0,济南,4k-8k,0,"晋升体系,节日福利,舒适环境",不需要融资,移动互联网,50-150人,,8316548,高新区,i/image/M00/41/18/CgpEMllUXsqAT0YqAAAL-RTlZhs104.jpg,"web,HTML,Css,JavaScript",,null,117.148029,36.676314,1天前发布,null,0,0,山东创之谷信息技术有限公司,disabled,1528532273000,null,0,null,0,0,0,null,null,开发/测试/运维类,后端开发,1,null,null,null
181936,php工程师,不限,不限,全职,4702014,杭州奇胜教育咨询有限公司,"2018-06-09 16:15:12",0,杭州,5k-10k,0,"有提升空间,有房补,五险,不加班",未融资,其他,50-150人,,10308772,江干区,images/logo_default.png,"移动互联网,ThinkPHP,网站开发","移动互联网,ThinkPHP,网站开发",白杨,120.369678,30.303553,1天前发布,null,20,1,杭州奇胜教育咨询有限公司,today,1528629622000,null,0,null,0,0,0,null,null,开发/测试/运维类,后端开发,0,1号线(下沙江滨),云水,1号线(下沙江滨)_文海南路;1号线(下沙江滨)_云水
102382,PHP,1-3年,大专,全职,1372772,"易网 科技","2018-06-09 16:08:19",0,杭州,10k-15k,1,即将上市公司，福利好待遇优,未融资,"移动互联网,电子商务",50-150人,"技能培训,帅哥多,美女多,扁平管理",2936403,西湖区,i/image/M00/3E/9A/Cgp3O1d02U-ACjYaAABhoBuJ-tk877.png,,,古墩路,120.10550029,30.30430872,1天前发布,null,0,0,浙江易网科技股份有限公司,disabled,1528531662000,null,0,null,0,0,0,null,null,技术,后端开发,0,null,null,null
4428,高级PHP开发工程师,3-5年,本科,全职,4701999,恺英网络,"2018-06-09 16:06:29",0,上海,10k-18k,1,"PHP,JS,平台开发",上市公司,"移动互联网,游戏",500-2000人,"游戏公司,页游,手游,互联网",10483209,闵行区,i/image/M00/03/E7/Cgp3O1bESDeASO6DAAAwXOmuvw4192.jpg,"游戏,HTML","游戏,HTML",浦江,121.50666,31.09761,1天前发布,null,0,0,上海恺英网络科技有限公司,threeDays,1528531359000,null,0,null,0,0,0,null,null,开发/测试/运维类,后端开发,0,8号线,浦江镇,8号线_江月路;8号线_浦江镇
206749,PHP工程师,1-3年,本科,全职,3167864,怀信广志,"2018-06-09 16:03:55",0,武汉,6k-12k,1,"周末双休 五险一金 项目分成 年底分红",未融资,"移动互联网,O2O",15-50人,,8024107,洪山区,i/image/M00/2A/CF/CgpEMlkjp1KAZNa7AAB0Yagwb8w265.jpg,"信息安全,中级,web,HTML","信息安全,中级,web,HTML","光谷,关山",114.421421,30.472741,1天前发布,null,27,1,武汉市怀信广志信息科技有限公司,disabled,1528529166000,null,0,null,0,0,0,null,null,开发/测试/运维类,后端开发,0,null,null,null
309456,PHP开发工程师,应届毕业生,大专,全职,4007930,贝笃科技,"2018-06-09 15:58:12",0,广州,4k-6k,0,"双休,提成,带薪年假,五险一金",未融资,"移动互联网,电子商务",150-500人,"""""",9644919,天河区,images/logo_default.png,"初级,实习,ThinkPHP,网站开发",,"天河城,石牌,体育中心",113.332124,23.133135,1天前发布,null,100,1,上海贝笃网络科技有限公司,disabled,1528530919000,null,0,null,0,0,0,null,null,开发/测试/运维类,后端开发,1,APM线,妇儿中心,1号线_体育西路;1号线_体育中心;3号线_体育西路;3号线_石牌桥;3号线_岗顶;3号线(北延段)_林和西;3号线(北延段)_体育西路;APM线_妇儿中心;APM线_黄埔大道;APM线_天河南;APM线_体育中心南;APM线_林和西
246130,PHP开发工程师（高级）,5-10年,本科,全职,4255269,广东原动力,"2018-06-09 18:54:16",0,广州,16k-22k,0,"年终奖励,股权激励,涨薪机制,技术提升",未融资,"移动互联网,信息安全",50-150人,,9650808,天河区,i/image/M00/61/FE/CgpEMlmT-viAM04xAADDN02HXag281.png,"web,架构师,移动端,web前端,Java",,"珠江新城,岗顶,石牌",113.34495,23.129639,1天前发布,null,0,0,广东原动力信息科技有限责任公司,today,1528628092000,null,0,null,0,0,0,null,null,开发/测试/运维类,前端开发/移动开发,0,3号线,石牌桥,3号线_石牌桥;3号线_岗顶;3号线_华师;5号线_潭村
242768,高级PHP开发工程师,3-5年,本科,全职,4088311,阿米巴,"2018-06-09 16:23:31",0,广州,20k-30k,1,"团队年轻化,技术大咖多,工作氛围好,发展前景大",不需要融资,"移动互联网,电子商务",150-500人,"年底双薪,定期体检,五险一金,带薪年假",5973702,越秀区,i/image2/M00/2D/9B/CgotOVox7ryAItSOAAAxgDQbfsM761.jpg,"信息安全,后端开发,后端,Java","信息安全,后端开发,后端,Java","建设,黄花岗",113.295453,23.136383,1天前发布,null,100,3,汕头市阿米巴网络科技有限公司,threeDays,1528510635000,null,0,null,0,0,0,null,null,开发/测试/运维类,后端开发,0,5号线,动物园,1号线_烈士陵园;1号线_东山口;5号线_淘金;5号线_区庄;5号线_动物园;6号线_黄花岗;6号线_区庄;6号线_东山口
201757,php程序员,不限,大专,全职,3094947,科唯信息技术,"2018-06-09 16:21:29",0,珠海,5k-10k,1,"攻城狮,程序员",不需要融资,"移动互联网,O2O",15-50人,,7906004,香洲区,i/image/M00/22/00/CgpEMlkQGJ6ABfMXAABm-oE5z-w964.jpg,"Java,MySQL,后端",,"凤凰,狮山,狮山",113.568826,22.281765,1天前发布,null,100,4,珠海市科唯信息技术有限公司,disabled,1528564765000,null,0,null,0,0,0,null,null,开发/测试/运维类,后端开发,0,null,null,null
223414,PHP工程师,3-5年,本科,全职,4701988,小帽科技,"2018-06-09 15:57:25",0,北京,15k-30k,1,"五险一金,每天下午茶,年终奖,团队出游",天使轮,"数据服务,移动互联网",15-50人,"股票期权,每天下午茶,年终奖",8302970,海淀区,i/image/M00/53/4E/CgpFT1l_LC-AQrVvAAAWurff48c618.png,后端,,null,116.310721,40.036317,1天前发布,null,100,0,北京小帽科技有限公司,disabled,1528514644000,null,0,null,0,0,0,null,null,开发/测试/运维类,后端开发,0,13号线,上地,13号线_上地
238944,php工程师、php程序员、php+mysql开发,1-3年,大专,全职,3436387,亚米茄亚法,"2018-06-09 15:44:37",0,东莞,5K-10K,1,"五险,周末双休,年底分红",天使轮,"企业服务,电子商务",15-50人,,8081847,东莞市市辖区,i/image/M00/58/F6/CgpEMlmCmhmATbxlAAAwGqJsZuw253.png,"后端,Tp框架,OA开发",,null,0.0,0.0,1天前发布,null,0,0,东莞市亚米茄亚法信息科技有限公司,today,1528628474000,null,0,null,0,0,0,null,null,开发/测试/运维类,后端开发,0,null,null,null
26228,高级PHP运维工程师,1-3年,大专,全职,4685158,艾皮克,"2018-06-09 15:28:51",0,厦门,8k-12k,0,不加班,未融资,"移动互联网,游戏",15-50人,"年终分红,五险一金,领导好,岗位晋升",320349,思明区,images/logo_default.png,"MySQL,后端",,null,118.109263,24.477033,1天前发布,null,0,0,厦门艾皮克网络科技有限公司,threeDays,1528529321000,null,0,null,0,0,0,null,null,开发/测试/运维类,后端开发,0,null,null,null
173103,微信/PHP开发工程师,1-3年,本科,全职,3809856,小七探险,"2018-06-09 15:27:32",0,深圳,7k-13k,0,"期权激励,强势发展,风口,氛围好",不需要融资,"金融,移动互联网",15-50人,"扁平管理,五险一金,弹性工作,成长空间大",7141998,南山区,i/image2/M00/48/30/CgotOVrd4TWAQxU8AAAQDryR3FE473.png,"后端开发,Java,后端,ThinkPHP",,null,113.989247,22.587066,1天前发布,null,100,2,大河（深圳）信息有限公司,today,1528609350000,null,0,null,0,0,0,null,null,开发/测试/运维类,后端开发,0,5号线/环中线,塘朗,5号线/环中线_塘朗
61249,php架构师,5-10年,本科,全职,4471339,云鸟科技,"2018-06-09 15:25:54",0,北京,20k-40k,1,"五险一金,法定节假日,团队氛围好,员工福利好",D轮及以上,"移动互联网,O2O",500-2000人,"技能培训,节日礼物,绩效奖金,岗位晋升",8669491,朝阳区,i/image/M00/77/85/CgqKkVg4ZMeAR3-3AACOhZ_Lekw55.jpeg,"信息安全,系统架构","信息安全,系统架构","望京,来广营,花家地",116.466554,39.995147,1天前发布,null,0,0,北京云鸟科技有限公司,threeDays,1528536037000,null,0,null,0,0,0,null,null,开发/测试/运维类,软件开发,0,15号线,阜通,13号线_望京西;14号线东段_望京;14号线东段_阜通;15号线_望京;15号线_望京西
227781,PHP高级工程师,5-10年,本科,全职,3947077,连载阅读,"2018-06-09 15:24:20",0,长沙,9k-16k,0,"年底双薪,年终分红,下午茶福利,带薪年假",A轮,"移动互联网,电子商务",15-50人,"年底双薪,带薪年假,弹性工作,扁平管理",8443260,岳麓区,i/image2/M00/2E/23/CgotOVozREGAJXAJAAAvmCf_5T0255.png,"MySQL,ThinkPHP",,null,112.95725,28.227681,1天前发布,null,100,1,湖南本地星网络科技有限公司,disabled,1528529076000,null,0,null,0,0,0,null,null,开发/测试/运维类,后端开发,0,null,null,null
55605,PHP开发工程师,1-3年,本科,全职,4581555,广州小丑鱼,"2018-06-09 15:22:22",0,广州,5k-10k,1,"福利好,平台大,氛围好",不需要融资,游戏,50-150人,"年底双薪,年度旅游,免费三餐水果,弹性工作",1392477,天河区,i/image/M00/88/F8/Cgp3O1hvTqqAMz9xAAAlr0VaqhE343.png,,,"五山,石牌,天河北",113.346296,23.14746,1天前发布,null,81,1,广州小丑鱼信息科技有限公司,threeDays,1528524598000,null,0,null,0,0,0,null,null,开发/测试/运维类,后端开发,0,3号线,华师,3号线_华师;3号线_五山
66442,PHP工程师,3-5年,不限,全职,3588764,博顺网络,"2018-06-09 15:17:05",0,深圳,16k-30k,0,"14薪以上,额外补贴,包食宿,带薪休假",不需要融资,"电子商务,移动互联网",15-50人,"领导好,美女多,交通补助,五险一金",8483119,南山区,i/image/M00/58/58/CgpEMlmBdV6AH74CAAAxYzCq6wk264.png,"旅游,文化娱乐,彩票,MySQL,后端","旅游,文化娱乐,彩票,MySQL,后端","白石洲,大冲,科技园",113.952263,22.540825,1天前发布,null,5,0,深圳市博顺网络科技有限公司,today,1528632561000,null,0,null,0,0,0,null,null,开发/测试/运维类,后端开发,0,1号线/罗宝线,深大,1号线/罗宝线_高新园;1号线/罗宝线_深大
393586,php程序员,不限,大专,全职,4652996,码元网络,"2018-06-09 15:06:47",0,长沙,8k-12k,0,"高薪,大牛带,时间自由,自有框架",不需要融资,"移动互联网,企业服务",少于15人,"""""",10920744,岳麓区,i/image/M00/8F/FF/CgpFT1sLzCGASNF0AACT70Ff7vU194.png,"移动互联网,初级,实习,web,移动端","移动互联网,初级,实习,web,移动端",中南大学,112.951458,28.154586,1天前发布,null,77,1,湖南码元网络科技合伙企业（普通合伙）,today,1528593074000,null,0,null,0,0,0,null,null,开发/测试/运维类,后端开发,0,null,null,null
207518,php开发工程师,1-3年,本科,全职,4299835,天融信,"2018-06-09 15:01:53",0,武汉,8K-12K,0,上市公司，7险1金，餐补交补,上市公司,"信息安全,硬件",2000人以上,,8438013,洪山区,i/image/M00/2F/48/CgpFT1k3tAiAVlD5AAAvT2sVJ9w703.jpg,"中级,初级,软件开发",,光谷,114.444599,30.50491,1天前发布,null,20,3,北京天融信科技有限公司,today,1528614991000,null,0,null,0,0,0,null,null,开发/测试/运维类,软件开发,0,null,null,null
6718,PHP开发工程师,1-3年,本科,全职,4031058,珍爱网,"2018-06-09 14:57:32",0,深圳,10k-15k,1,技术氛围好；工作环境棒,不需要融资,"社交网络,生活服务",2000人以上,"发展上升型,朝阳行业,创业氛围浓厚,年终分红",8875498,南山区,image1/M00/00/0E/CgYXBlTUWCaARrveAABvE1mqO8Q477.jpg,"后端开发,大数据,Java,MySQL",,"后海,深圳湾,科技园",113.94225,22.519682,1天前发布,null,3,0,深圳市珍爱网信息技术有限公司,threeDays,1528527515000,null,0,null,0,0,0,null,null,开发/测试/运维类,后端开发,0,2号线/蛇口线,登良,2号线/蛇口线_登良;2号线/蛇口线_后海;2号线/蛇口线_科苑;11号线/机场线_后海
52047,PHP程序工程师,1-3年,大专,全职,2821260,视点网络,"2018-06-09 14:55:55",0,南宁,3K-6K,1,"提成奖金,扁平管理,分红,上升空间大",不需要融资,"电子商务,企业服务",50-150人,"技能培训,节日礼物,专项奖金,股票期权",1308698,西乡塘区,image1/M00/08/7E/Cgo8PFTVnsKAEvQBAABVxiWuebY882.jpg,"电商,中级,架构师,后端","电商,中级,架构师,后端",null,108.270481,22.860358,1天前发布,null,0,0,南宁市视点网络信息有限公司,disabled,1528527332000,null,0,null,0,0,0,null,null,开发/测试/运维类,后端开发,0,null,null,null
201757,php程序员,应届毕业生,大专,全职,3747210,科唯信息技术,"2018-06-09 16:21:29",0,东莞,5k-10k,1,"攻城狮,程序员",不需要融资,"移动互联网,O2O",15-50人,,7906004,东莞市市辖区,i/image/M00/22/00/CgpEMlkQGJ6ABfMXAABm-oE5z-w964.jpg,"Java,MySQL,后端",,null,113.757566,23.016277,1天前发布,null,100,4,珠海市科唯信息技术有限公司,disabled,1528564765000,null,0,null,0,0,0,null,null,开发/测试/运维类,后端开发,1,2号线,旗峰公园,2号线_旗峰公园;2号线_鸿福路
26228,PHP程序员,1-3年,本科,全职,4685141,艾皮克,"2018-06-09 15:28:51",0,厦门,5k-8k,0,不加班,未融资,"移动互联网,游戏",15-50人,"年终分红,五险一金,领导好,岗位晋升",320349,思明区,images/logo_default.png,"MySQL,后端",,null,118.109263,24.477033,1天前发布,null,0,0,厦门艾皮克网络科技有限公司,threeDays,1528529321000,null,0,null,0,0,0,null,null,开发/测试/运维类,后端开发,0,null,null,null
61249,"php leader",5-10年,本科,全职,3954518,云鸟科技,"2018-06-09 15:25:54",0,北京,20k-40k,1,"15薪,绩效奖金,团队氛围好,工作氛围好",D轮及以上,"移动互联网,O2O",500-2000人,"技能培训,节日礼物,绩效奖金,岗位晋升",8669491,朝阳区,i/image/M00/77/85/CgqKkVg4ZMeAR3-3AACOhZ_Lekw55.jpeg,"资深,Java,后端",,"望京,来广营,花家地",116.466554,39.995147,1天前发布,null,0,0,北京云鸟科技有限公司,threeDays,1528536037000,null,0,null,0,0,0,null,null,开发/测试/运维类,后端开发,0,15号线,阜通,13号线_望京西;14号线东段_望京;14号线东段_阜通;15号线_望京;15号线_望京西
66442,高级php开发工程师,3-5年,大专,全职,4336750,博顺网络,"2018-06-09 15:16:58",0,深圳,15k-22k,0,"双休,餐补交通补,饮料水果,年终奖",不需要融资,"电子商务,移动互联网",15-50人,"领导好,美女多,交通补助,五险一金",8483119,南山区,i/image/M00/58/58/CgpEMlmBdV6AH74CAAAxYzCq6wk264.png,"直播,后端开发,laravel,MySQL,后端","直播,后端开发,laravel,MySQL,后端","白石洲,大冲,科技园",113.952263,22.540825,1天前发布,null,5,0,深圳市博顺网络科技有限公司,today,1528632561000,null,0,null,0,0,0,null,null,开发/测试/运维类,后端开发,0,1号线/罗宝线,深大,1号线/罗宝线_高新园;1号线/罗宝线_深大
52047,PHP技术经理,1-3年,大专,全职,2821222,视点网络,"2018-06-09 14:55:40",0,南宁,5K-8K,1,"核心人员,期权,扁平管理,上升空间大",不需要融资,"电子商务,企业服务",50-150人,"技能培训,节日礼物,专项奖金,股票期权",1308698,西乡塘区,image1/M00/08/7E/Cgo8PFTVnsKAEvQBAABVxiWuebY882.jpg,"电商,高级,架构师,后端","电商,高级,架构师,后端",null,108.270481,22.860358,1天前发布,null,0,0,南宁市视点网络信息有限公司,disabled,1528527332000,null,0,null,0,0,0,null,null,开发/测试/运维类,后端开发,0,null,null,null
50541,PHP开发工程师,3-5年,本科,全职,4701847,泰迪熊,"2018-06-09 14:53:39",0,北京,16k-25k,1,"弹性工作,工作餐,交通补助,16薪",C轮,移动互联网,150-500人,"绩效奖金,领导好,帅哥多,定期体检",9792882,朝阳区,image1/M00/00/85/CgYXBlTUXeWAUgYVAAB7SuCf1iY156.png,"资深,高级,中级,web前端,Java,html5",,null,116.474882,39.907438,1天前发布,null,73,1,北京泰迪熊移动科技有限公司,threeDays,1528509887000,null,0,null,0,0,0,null,null,开发/测试/运维类,前端开发/移动开发,0,10号线,大望路,1号线_国贸;1号线_大望路;10号线_国贸;14号线东段_大望路
175253,高级PHP程序开发,3-5年,不限,全职,3270209,玖盟,"2018-06-09 14:47:50",0,深圳,15k-25k,0,"团队氛围好,晋升空间大",不需要融资,"移动互联网,电子商务",50-150人,"年底双薪,午餐补助,绩效奖金,专项奖金",5471206,南山区,i/image/M00/38/23/CgpEMllCRJeAX1gEAAAZ4Dzv6Yg095.jpg,"web,Javascript,CSS,前端,后端",,null,113.942084,22.548687,1天前发布,null,100,2,深圳玖盟互动网络科技有限公司,threeDays,1528526806000,null,0,null,0,0,0,null,null,开发/测试/运维类,前端开发/移动开发,0,1号线/罗宝线,深大,1号线/罗宝线_深大
202941,PHP开发工程师,应届毕业生,本科,全职,3622973,南京木木西里科学仪器有限公司,"2018-06-09 14:44:53",0,上海,6k-8k,1,"晋升空间大,项目奖金,业务提成,期权激励",不需要融资,电子商务,50-150人,"专项奖金,股票期权,带薪年假,通讯津贴",8565874,嘉定区,i/image2/M00/02/C9/CgoB5lnBGTKAVqUaAADtiufCAjw753.jpg,"旅游,中级,初级,Java,后端","旅游,中级,初级,Java,后端",null,121.210317,31.282143,1天前发布,null,100,1,南京木木西里科学仪器有限公司,threeDays,1528424744000,null,0,null,0,0,0,null,null,开发/测试/运维类,后端开发,1,null,null,null
50832,PHP工程师,不限,大专,全职,2754856,镭拓科技,"2018-06-09 14:44:08",0,广州,4k-8k,1,"五险,双休,培训,奖金",不需要融资,"企业服务,移动互联网",15-50人,"绩效奖金,带薪年假,技能培训,岗位晋升",5480761,天河区,i/image/M00/3C/F5/Cgp3O1dw99-AJqP8AAA-0hP5-Xk362.jpg,,,"车陂,东圃,天园",112.994066,22.993242,1天前发布,null,0,0,广州镭拓网络科技有限公司,threeDays,1528526634000,null,0,null,0,0,0,null,null,开发/测试/运维类,后端开发,0,null,null,null
376750,PHP开发经理,5-10年,大专,全职,4686655,密维,"2018-06-09 14:42:58",0,厦门,20k-40k,0,"带薪年假,员工旅游,包食宿,节日福利",未融资,移动互联网,50-150人,"""""",10718464,湖里区,i/image2/M00/4E/4F/CgotOVsFPtCAMenyAAAYdyFotug989.jpg,"即时通讯,架构师,MySQL,架构","即时通讯,架构师,MySQL,架构",null,118.182044,24.489699,1天前发布,null,0,0,深圳市密维网络科技有限公司,threeDays,1528514045000,null,0,null,0,0,0,null,null,开发/测试/运维类,软件开发,0,null,null,null
344936,PHP中级程序员,3-5年,大专,全职,4701817,佛朗斯股份,"2018-06-09 14:39:43",0,广州,6K-8K,0,福利待遇:包吃住，五险一金，广阔晋升前景,D轮及以上,其他,500-2000人,"年底双薪,节日礼物,美女多,管理规范",11011154,番禺区,i/image3/M00/41/CB/CgpOIFq0pWyAYCo1AAFDPiTDmlU018.png,,,null,113.41013,22.942608,1天前发布,null,0,0,广州佛朗斯股份有限公司,today,1528634876000,null,0,null,0,0,0,null,null,开发/测试/运维类,数据开发,0,null,null,null
335808,php开发工程师,1-3年,本科,全职,4604408,楚鹿科技,"2018-06-09 14:39:35",0,武汉,7K-14K,0,"双休,氛围好,美女多",不需要融资,移动互联网,15-50人,"""""",10767965,武昌区,i/image3/M00/2D/DF/CgpOIFqfkwGAGgTPAAAI1stcIlI984.png,"中级,全栈,Java,web,后端",,武珞路,114.342853,30.529184,1天前发布,null,57,1,武汉楚鹿科技有限公司,today,1528632602000,null,0,null,0,0,0,null,null,开发/测试/运维类,后端开发,0,4号线,宝通寺,2号线_街道口;2号线_宝通寺;2号线_中南路;4号线_中南路
52510,高级php开发工程师,3-5年,大专,全职,4554379,诗悦网络,"2018-06-09 14:24:28",0,广州,9k-12k,1,"待遇丰厚,老大信任,晋升快,空间大",不需要融资,游戏,150-500人,"年底双薪,技能培训,节日礼物,绩效奖金",10477730,天河区,image1/M00/09/52/Cgo8PFTcWR6AapgqAABImaUWmVA464.png,"资深,中级,后端,Python",,"棠下,天河公园,车陂",113.374818,23.132603,1天前发布,null,43,1,广州诗悦网络科技有限公司,threeDays,1528525594000,null,0,null,0,0,0,null,null,开发/测试/运维类,后端开发,0,null,null,null
5832,中级PHP开发工程师,1-3年,本科,全职,4629922,新浪微博,"2018-06-09 14:24:20",0,北京,10k-20k,1,"带薪年假,年底双薪,核心团队",上市公司,移动互联网,2000人以上,"年底双薪,专项奖金,股票期权,五险一金",5833238,海淀区,image1/M00/00/0D/CgYXBlTUWCCAdkhOAABNgyvZQag818.jpg,"支付,Java,移动端","支付,Java,移动端",马连洼,0.0,0.0,1天前发布,"免费班车,免费健身房,弹性工作",100,1,微梦创科网络科技（中国）有限公司,threeDays,1528525036000,null,0,null,0,0,0,null,null,开发/测试/运维类,后端开发,0,null,null,null
286751,PHP程序员,1-3年,不限,全职,3831956,德益美,"2018-06-09 14:23:08",0,武汉,6k-10k,0,"弹性工作,股权激励,分红机制,工作自由",未融资,电子商务,少于15人,"""""",9350380,青山区,i/image2/M00/1F/48/CgotOVoM8cyADlBPAADDEcwB5us178.jpg,"linux,MySQL,HTML,redis,ajax",,"冶金,建设二路,和平大道",114.375381,30.62494,1天前发布,null,100,1,深圳市德益美网络科技有限公司,threeDays,1528510713000,null,0,null,0,0,0,null,null,开发/测试/运维类,后端开发,0,null,null,null
201757,php程序员,应届毕业生,大专,全职,3670763,科唯信息技术,"2018-06-09 16:21:29",0,深圳,5k-10k,1,"攻城狮,程序员",不需要融资,"移动互联网,O2O",15-50人,,7906004,福田区,i/image/M00/22/00/CgpEMlkQGJ6ABfMXAABm-oE5z-w964.jpg,"Java,MySQL,后端",,"新洲,香蜜湖,购物公园",114.05246,22.537073,1天前发布,null,100,4,珠海市科唯信息技术有限公司,disabled,1528564765000,null,0,null,0,0,0,null,null,开发/测试/运维类,后端开发,1,2号线/蛇口线,购物公园,2号线/蛇口线_莲花西;2号线/蛇口线_福田;2号线/蛇口线_市民中心;4号线/龙华线_会展中心;4号线/龙华线_市民中心;4号线/龙华线_少年宫;1号线/罗宝线_会展中心;1号线/罗宝线_购物公园;1号线/罗宝线_香蜜湖;3号线/龙岗线_购物公园;3号线/龙岗线_福田;3号线/龙岗线_少年宫;11号线/机场线_福田
